$GPZDA,110259.200,25,09,2013,,*54
$GPGGA,110259.400,3844.2235,N,00908.1875,W,1,3,3.71,99.5,M,50.7,M,,*72
$GPGLL,3844.2235,N,00908.1875,W,110259.400,A,A*46
$GPGSA,A,2,21,25,29,,,,,,,,,,3.84,3.71,1.00*07
$GPRMC,110259.400,A,3844.2235,N,00908.1875,W,1.15,158.87,250913,,,A*7B
$GPVTG,158.87,T,,M,1.15,N,2.13,K,A*3B
$GPZDA,110259.400,25,09,2013,,*52
$GPGGA,110259.600,3844.2232,N,00908.1872,W,1,3,3.71,99.5,M,50.7,M,,*70
$GPGLL,3844.2232,N,00908.1872,W,110259.600,A,A*44
$GPGSA,A,2,21,25,29,,,,,,,,,,3.84,3.71,1.00*07
$GPRMC,110259.600,A,3844.2232,N,00908.1872,W,1.39,160.29,250913,,,A*78
$GPVTG,160.29,T,,M,1.39,N,2.58,K,A*35
$GPZDA,110259.600,25,09,2013,,*50
$GPGGA,110259.800,3844.2228,N,00908.1868,W,1,3,3.71,99.5,M,50.7,M,,*7E
$GPGLL,3844.2228,N,00908.1868,W,110259.800,A,A*4A
$GPGSA,A,2,21,25,29,,,,,,,,,,3.84,3.71,1.00*07
$GPGSV,4,1,13,21,64,093,33,16,47,315,22,06,42,271,17,31,42,189,21*73
$GPGSV,4,2,13,27,32,263,19,29,19,060,32,03,19,266,22,18,12,126,18*7D
$GPGSV,4,3,13,25,08,116,25,23,05,291,,13,04,318,,19,02,249,*75
$GPGSV,4,4,13,22,01,158,*46
$GPRMC,110259.800,A,3844.2228,N,00908.1868,W,1.60,161.58,250913,,,A*7D
$GPVTG,161.58,T,,M,1.60,N,2.96,K,A*3C
$GPZDA,110259.800,25,09,2013,,*5E
$GPGGA,110300.000,3844.2226,N,00908.1865,W,1,3,3.71,99.5,M,50.7,M,,*78
$GPGLL,3844.2226,N,00908.1865,W,110300.000,A,A*4C
$GPGSA,A,2,21,25,29,,,,,,,,,,3.84,3.71,1.00*07
$GPRMC,110300.000,A,3844.2226,N,00908.1865,W,1.75,162.40,250913,,,A*75
$GPVTG,162.40,T,,M,1.75,N,3.25,K,A*3B
$GPZDA,110300.000,25,09,2013,,*5B
$GPGGA,110300.200,3844.2224,N,00908.1864,W,1,3,3.71,99.5,M,50.7,M,,*79
$GPGLL,3844.2224,N,00908.1864,W,110300.200,A,A*4D
$GPGSA,A,2,21,25,29,,,,,,,,,,3.84,3.71,1.00*07
$GPRMC,110300.200,A,3844.2224,N,00908.1864,W,1.83,164.66,250913,,,A*7F
$GPVTG,164.66,T,,M,1.83,N,3.39,K,A*3D
$GPZDA,110300.200,25,09,2013,,*59
$GPGGA,110300.400,3844.2222,N,00908.1861,W,1,3,3.71,99.5,M,50.7,M,,*7C
$GPGLL,3844.2222,N,00908.1861,W,110300.400,A,A*48
$GPGSA,A,2,21,25,29,,,,,,,,,,3.84,3.71,1.00*07
$GPRMC,110300.400,A,3844.2222,N,00908.1861,W,2.29,171.58,250913,,,A*70
$GPVTG,171.58,T,,M,2.29,N,4.25,K,A*3D
$GPZDA,110300.400,25,09,2013,,*5F
$GPGGA,110300.600,3844.2218,N,00908.1860,W,1,3,3.71,99.5,M,50.7,M,,*76
$GPGLL,3844.2218,N,00908.1860,W,110300.600,A,A*42
$GPGSA,A,2,21,25,29,,,,,,,,,,3.84,3.71,1.00*07
$GPRMC,110300.600,A,3844.2218,N,00908.1860,W,2.99,173.22,250913,,,A*7E
$GPVTG,173.22,T,,M,2.99,N,5.53,K,A*39
$GPZDA,110300.600,25,09,2013,,*5D
$GPGGA,110300.800,3844.2213,N,00908.1858,W,1,3,3.71,99.5,M,50.7,M,,*78
$GPGLL,3844.2213,N,00908.1858,W,110300.800,A,A*4C
$GPGSA,A,2,21,25,29,,,,,,,,,,3.84,3.71,1.00*07
$GPGSV,4,1,13,21,64,093,33,16,47,315,22,06,42,271,18,31,42,189,18*76
$GPGSV,4,2,13,27,32,263,19,29,19,060,32,03,19,266,24,18,12,126,17*74
$GPGSV,4,3,13,25,08,116,26,23,05,291,,13,04,318,,19,02,249,*76
$GPGSV,4,4,13,22,01,158,*46
$GPRMC,110300.800,A,3844.2213,N,00908.1858,W,3.83,173.72,250913,,,A*7F
$GPVTG,173.72,T,,M,3.83,N,7.09,K,A*3B
$GPZDA,110300.800,25,09,2013,,*53
$GPGGA,110301.000,3844.2209,N,00908.1857,W,1,3,3.71,99.5,M,50.7,M,,*75
$GPGLL,3844.2209,N,00908.1857,W,110301.000,A,A*41
$GPGSA,A,2,21,25,29,,,,,,,,,,3.84,3.71,1.00*07
$GPRMC,110301.000,A,3844.2209,N,00908.1857,W,4.72,173.00,250913,,,A*7E
$GPVTG,173.00,T,,M,4.72,N,8.74,K,A*32
$GPZDA,110301.000,25,09,2013,,*5A
$GPGGA,110301.200,3844.2205,N,00908.1856,W,1,3,3.71,99.5,M,50.7,M,,*7A
$GPGLL,3844.2205,N,00908.1856,W,110301.200,A,A*4E
$GPGSA,A,2,21,25,29,,,,,,,,,,3.84,3.71,1.00*07
$GPRMC,110301.200,A,3844.2205,N,00908.1856,W,5.61,174.13,250913,,,A*77
$GPVTG,174.13,T,,M,5.61,N,10.39,K,A*04
$GPZDA,110301.200,25,09,2013,,*58
$GPGGA,110301.400,3844.2199,N,00908.1857,W,1,3,3.71,99.5,M,50.7,M,,*7B
$GPGLL,3844.2199,N,00908.1857,W,110301.400,A,A*4F
$GPGSA,A,2,21,25,29,,,,,,,,,,3.84,3.71,1.00*07
$GPRMC,110301.400,A,3844.2199,N,00908.1857,W,6.55,174.56,250913,,,A*73
$GPVTG,174.56,T,,M,6.55,N,12.13,K,A*0B
$GPZDA,110301.400,25,09,2013,,*5E
$GPGGA,110301.600,3844.2194,N,00908.1856,W,1,3,3.71,99.5,M,50.7,M,,*75
$GPGLL,3844.2194,N,00908.1856,W,110301.600,A,A*41
$GPGSA,A,2,21,25,29,,,,,,,,,,3.84,3.71,1.00*07
$GPRMC,110301.600,A,3844.2194,N,00908.1856,W,7.39,174.63,250913,,,A*70
$GPVTG,174.63,T,,M,7.39,N,13.70,K,A*02
$GPZDA,110301.600,25,09,2013,,*5C
$GPGGA,110301.800,3844.2188,N,00908.1854,W,1,3,3.71,99.5,M,50.7,M,,*74
$GPGLL,3844.2188,N,00908.1854,W,110301.800,A,A*40
$GPGSA,A,2,21,25,29,,,,,,,,,,3.84,3.71,1.00*07
$GPGSV,4,1,13,21,64,093,32,16,47,315,21,06,42,271,18,31,42,189,18*74
$GPGSV,4,2,13,27,32,263,18,29,19,060,32,03,19,266,24,18,12,126,17*75
$GPGSV,4,3,13,25,08,116,23,23,05,291,,13,04,318,,19,02,249,*73
$GPGSV,4,4,13,22,01,158,*46
$GPRMC,110301.800,A,3844.2188,N,00908.1854,W,8.12,175.41,250913,,,A*76
$GPVTG,175.41,T,,M,8.12,N,15.05,K,A*01
$GPZDA,110301.800,25,09,2013,,*52
$GPGGA,110302.000,3844.2181,N,00908.1855,W,1,3,3.71,99.6,M,50.7,M,,*74
$GPGLL,3844.2181,N,00908.1855,W,110302.000,A,A*43
$GPGSA,A,2,21,25,29,,,,,,,,,,3.84,3.71,1.00*07
$GPRMC,110302.000,A,3844.2181,N,00908.1855,W,8.66,177.36,250913,,,A*74
$GPVTG,177.36,T,,M,8.66,N,16.04,K,A*02
$GPZDA,110302.000,25,09,2013,,*59
$GPGGA,110302.200,3844.2176,N,00908.1854,W,1,3,3.71,99.6,M,50.7,M,,*7F
$GPGLL,3844.2176,N,00908.1854,W,110302.200,A,A*48
$GPGSA,A,2,21,25,29,,,,,,,,,,3.84,3.71,1.00*07
$GPRMC,110302.200,A,3844.2176,N,00908.1854,W,8.99,179.37,250913,,,A*70
$GPVTG,179.37,T,,M,8.99,N,16.66,K,A*09
$GPZDA,110302.200,25,09,2013,,*5B
$GPGGA,110302.400,3844.2171,N,00908.1854,W,1,3,3.71,99.6,M,50.7,M,,*7E
$GPGLL,3844.2171,N,00908.1854,W,110302.400,A,A*49
$GPGSA,A,2,21,25,29,,,,,,,,,,3.84,3.71,1.00*07
$GPRMC,110302.400,A,3844.2171,N,00908.1854,W,9.05,179.73,250913,,,A*75
$GPVTG,179.73,T,,M,9.05,N,16.76,K,A*0C
$GPZDA,110302.400,25,09,2013,,*5D
$GPGGA,110302.600,3844.2166,N,00908.1855,W,1,3,3.71,99.6,M,50.7,M,,*7B
$GPGLL,3844.2166,N,00908.1855,W,110302.600,A,A*4C
$GPGSA,A,2,21,25,29,,,,,,,,,,3.84,3.71,1.00*07
$GPRMC,110302.600,A,3844.2166,N,00908.1855,W,9.07,180.21,250913,,,A*73
$GPVTG,180.21,T,,M,9.07,N,16.81,K,A*07
$GPZDA,110302.600,25,09,2013,,*5F
$GPGGA,110302.800,3844.2162,N,00908.1857,W,1,3,3.71,99.6,M,50.7,M,,*73
$GPGLL,3844.2162,N,00908.1857,W,110302.800,A,A*44
$GPGSA,A,2,21,25,29,,,,,,,,,,3.85,3.71,1.00*06
$GPGSV,4,1,13,21,64,093,32,16,47,315,22,06,42,271,18,31,42,189,18*77
$GPGSV,4,2,13,27,32,263,18,29,19,060,32,03,19,266,24,18,12,126,15*77
$GPGSV,4,3,13,25,08,116,20,23,05,291,,13,04,318,,19,02,249,*70
$GPGSV,4,4,13,22,01,158,*46
$GPRMC,110302.800,A,3844.2162,N,00908.1857,W,9.05,181.65,250913,,,A*78
$GPVTG,181.65,T,,M,9.05,N,16.77,K,A*0D
$GPZDA,110302.800,25,09,2013,,*51
$GPGGA,110303.000,3844.2156,N,00908.1859,W,1,3,3.71,99.6,M,50.7,M,,*73
$GPGLL,3844.2156,N,00908.1859,W,110303.000,A,A*44
$GPGSA,A,2,21,25,29,,,,,,,,,,3.84,3.71,1.00*07
$GPRMC,110303.000,A,3844.2156,N,00908.1859,W,9.12,181.89,250913,,,A*7C
$GPVTG,181.89,T,,M,9.12,N,16.91,K,A*01
$GPZDA,110303.000,25,09,2013,,*58
$GPGGA,110303.200,3844.2151,N,00908.1861,W,1,3,3.71,99.6,M,50.7,M,,*7D
$GPGLL,3844.2151,N,00908.1861,W,110303.200,A,A*4A
$GPGSA,A,2,21,25,29,,,,,,,,,,3.84,3.71,1.00*07
$GPRMC,110303.200,A,3844.2151,N,00908.1861,W,9.19,183.13,250913,,,A*78
$GPVTG,183.13,T,,M,9.19,N,17.03,K,A*01
$GPZDA,110303.200,25,09,2013,,*5A
$GPGGA,110303.400,3844.2145,N,00908.1865,W,1,3,3.71,99.6,M,50.7,M,,*7A
$GPGLL,3844.2145,N,00908.1865,W,110303.400,A,A*4D
$GPGSA,A,2,21,25,29,,,,,,,,,,3.84,3.71,1.00*07
$GPRMC,110303.400,A,3844.2145,N,00908.1865,W,9.23,181.62,250913,,,A*72
$GPVTG,181.62,T,,M,9.23,N,17.11,K,A*0F
$GPZDA,110303.400,25,09,2013,,*5C
$GPGGA,110303.600,3844.2139,N,00908.1870,W,1,3,3.71,99.7,M,50.7,M,,*76
$GPGLL,3844.2139,N,00908.1870,W,110303.600,A,A*40
$GPGSA,A,2,21,25,29,,,,,,,,,,3.84,3.71,1.00*07
$GPRMC,110303.600,A,3844.2139,N,00908.1870,W,9.56,181.75,250913,,,A*7B
$GPVTG,181.75,T,,M,9.56,N,17.71,K,A*0D
$GPZDA,110303.600,25,09,2013,,*5E
$GPGGA,110303.800,3844.2133,N,00908.1874,W,1,3,3.71,99.7,M,50.7,M,,*76
$GPGLL,3844.2133,N,00908.1874,W,110303.800,A,A*40
$GPGSA,A,2,21,25,29,,,,,,,,,,3.84,3.71,1.00*07
$GPGSV,4,1,13,21,64,093,35,16,47,315,27,06,42,271,18,31,42,189,18*75
$GPGSV,4,2,13,27,32,263,18,29,19,060,34,03,19,266,27,18,12,126,15*72
$GPGSV,4,3,13,25,08,116,15,23,05,291,,13,04,318,,19,02,249,*76
$GPGSV,4,4,13,22,01,158,*46
$GPRMC,110303.800,A,3844.2133,N,00908.1874,W,9.56,182.85,250913,,,A*77
$GPVTG,182.85,T,,M,9.56,N,17.71,K,A*01
$GPZDA,110303.800,25,09,2013,,*50
$GPGGA,110304.000,3844.2127,N,00908.1875,W,1,3,3.70,99.7,M,50.7,M,,*7C
$GPGLL,3844.2127,N,00908.1875,W,110304.000,A,A*4B
$GPGSA,A,2,21,25,29,,,,,,,,,,3.84,3.70,1.00*06
$GPRMC,110304.000,A,3844.2127,N,00908.1875,W,9.53,182.76,250913,,,A*75
$GPVTG,182.76,T,,M,9.53,N,17.66,K,A*0E
$GPZDA,110304.000,25,09,2013,,*5F
$GPGGA,110304.200,3844.2122,N,00908.1877,W,1,3,3.71,99.7,M,50.7,M,,*78
$GPGLL,3844.2122,N,00908.1877,W,110304.200,A,A*4E
$GPGSA,A,2,21,25,29,,,,,,,,,,3.84,3.71,1.00*07
$GPRMC,110304.200,A,3844.2122,N,00908.1877,W,9.51,184.54,250913,,,A*74
$GPVTG,184.54,T,,M,9.51,N,17.62,K,A*0E
$GPZDA,110304.200,25,09,2013,,*5D
$GPGGA,110304.400,3844.2117,N,00908.1878,W,6,2,99.99,99.8,M,50.7,M,,*4B
$GPGLL,3844.2117,N,00908.1878,W,110304.400,V,E*52
$GPGSA,A,1,21,29,,,,,,,,,,,99.99,99.99,1.00*09
$GPRMC,110304.400,V,3844.2117,N,00908.1878,W,9.54,184.95,250913,,,E*60
$GPVTG,184.95,T,,M,9.54,N,17.67,K,E*07
$GPZDA,110304.400,25,09,2013,,*5B
$GPGGA,110304.600,3844.2111,N,00908.1879,W,6,2,99.99,99.8,M,50.7,M,,*4E
$GPGLL,3844.2111,N,00908.1879,W,110304.600,V,E*57
$GPGSA,A,1,21,29,,,,,,,,,,,99.99,99.99,1.00*09
$GPRMC,110304.600,V,3844.2111,N,00908.1879,W,9.55,184.63,250913,,,E*6D
$GPVTG,184.63,T,,M,9.55,N,17.69,K,E*01
$GPZDA,110304.600,25,09,2013,,*59
$GPGGA,110304.800,3844.2106,N,00908.1880,W,6,2,99.99,99.8,M,50.7,M,,*40
$GPGLL,3844.2106,N,00908.1880,W,110304.800,V,E*59
$GPGSA,A,1,21,29,,,,,,,,,,,99.99,99.99,1.00*09
$GPGSV,4,1,13,21,64,093,29,16,47,315,21,06,42,271,19,31,42,189,18*7F
$GPGSV,4,2,13,27,32,263,20,29,19,060,27,03,19,266,23,18,12,126,15*7F
$GPGSV,4,3,13,25,08,116,,23,05,291,,13,04,318,,19,02,249,*72
$GPGSV,4,4,13,22,01,158,*46
$GPRMC,110304.800,V,3844.2106,N,00908.1880,W,9.55,184.46,250913,,,E*64
$GPVTG,184.46,T,,M,9.55,N,17.70,K,E*0E
$GPZDA,110304.800,25,09,2013,,*57
$GPGGA,110305.000,3844.2101,N,00908.1880,W,6,2,99.99,99.8,M,50.7,M,,*4E
$GPGLL,3844.2101,N,00908.1880,W,110305.000,V,E*57
$GPGSA,A,1,21,29,,,,,,,,,,,99.99,99.99,1.00*09
$GPRMC,110305.000,V,3844.2101,N,00908.1880,W,9.27,181.71,250913,,,E*6E
$GPVTG,181.71,T,,M,9.27,N,17.18,K,E*04
$GPZDA,110305.000,25,09,2013,,*5E
$GPGGA,110305.200,3844.2096,N,00908.1880,W,6,2,99.99,99.9,M,50.7,M,,*42
$GPGLL,3844.2096,N,00908.1880,W,110305.200,V,E*5A
$GPGSA,A,1,21,29,,,,,,,,,,,99.99,99.99,1.00*09
$GPRMC,110305.200,V,3844.2096,N,00908.1880,W,9.21,179.89,250913,,,E*65
$GPVTG,179.89,T,,M,9.21,N,17.07,K,E*0C
$GPZDA,110305.200,25,09,2013,,*5C
$GPGGA,110305.400,3844.2090,N,00908.1880,W,6,2,99.99,99.9,M,50.7,M,,*42
$GPGLL,3844.2090,N,00908.1880,W,110305.400,V,E*5A
$GPGSA,A,1,21,29,,,,,,,,,,,99.99,99.99,1.00*09
$GPRMC,110305.400,V,3844.2090,N,00908.1880,W,9.24,178.23,250913,,,E*61
$GPVTG,178.23,T,,M,9.24,N,17.11,K,E*0F
$GPZDA,110305.400,25,09,2013,,*5A
$GPGGA,110305.600,3844.2084,N,00908.1880,W,6,2,99.99,99.9,M,50.7,M,,*45
$GPGLL,3844.2084,N,00908.1880,W,110305.600,V,E*5D
$GPGSA,A,1,21,29,,,,,,,,,,,99.99,99.99,1.00*09
$GPRMC,110305.600,V,3844.2084,N,00908.1880,W,9.19,175.88,250913,,,E*64
$GPVTG,175.88,T,,M,9.19,N,17.03,K,E*0E
$GPZDA,110305.600,25,09,2013,,*58
$GPGGA,110305.800,3844.2079,N,00908.1880,W,6,2,99.99,100.0,M,50.7,M,,*71
$GPGLL,3844.2079,N,00908.1880,W,110305.800,V,E*51
$GPGSA,A,1,21,29,,,,,,,,,,,99.99,99.99,1.00*09
$GPGSV,4,1,13,21,64,093,32,16,47,315,19,06,42,271,17,31,42,189,17*7F
$GPGSV,4,2,13,27,32,263,18,29,19,060,32,03,19,266,26,18,12,126,15*75
$GPGSV,4,3,13,25,08,116,,23,05,291,,13,04,318,,19,02,249,*72
$GPGSV,4,4,13,22,01,158,*46
$GPRMC,110305.800,V,3844.2079,N,00908.1880,W,8.99,174.01,250913,,,E*61
$GPVTG,174.01,T,,M,8.99,N,16.67,K,E*04
$GPZDA,110305.800,25,09,2013,,*56
$GPGGA,110306.000,3844.2075,N,00908.1880,W,6,2,99.99,100.0,M,50.7,M,,*76
$GPGLL,3844.2075,N,00908.1880,W,110306.000,V,E*56
$GPGSA,A,1,21,29,,,,,,,,,,,99.99,99.99,1.00*09
$GPRMC,110306.000,V,3844.2075,N,00908.1880,W,8.70,173.13,250913,,,E*65
$GPVTG,173.13,T,,M,8.70,N,16.12,K,E*05
$GPZDA,110306.000,25,09,2013,,*5D
$GPGGA,110306.200,3844.2070,N,00908.1880,W,6,2,99.99,100.1,M,50.7,M,,*70
$GPGLL,3844.2070,N,00908.1880,W,110306.200,V,E*51
$GPGSA,A,1,21,29,,,,,,,,,,,99.99,99.99,1.00*09
$GPRMC,110306.200,V,3844.2070,N,00908.1880,W,8.71,171.20,250913,,,E*61
$GPVTG,171.20,T,,M,8.71,N,16.14,K,E*00
$GPZDA,110306.200,25,09,2013,,*5F
$GPGGA,110306.400,3844.2066,N,00908.1879,W,6,2,99.99,100.1,M,50.7,M,,*77
$GPGLL,3844.2066,N,00908.1879,W,110306.400,V,E*56
$GPGSA,A,1,21,29,,,,,,,,,,,99.99,99.99,1.00*09
$GPRMC,110306.400,V,3844.2066,N,00908.1879,W,8.67,170.20,250913,,,E*60
$GPVTG,170.20,T,,M,8.67,N,16.07,K,E*04
$GPZDA,110306.400,25,09,2013,,*59
$GPGGA,110306.600,3844.2062,N,00908.1877,W,6,2,99.99,100.1,M,50.7,M,,*7F
$GPGLL,3844.2062,N,00908.1877,W,110306.600,V,E*5E
$GPGSA,A,1,21,29,,,,,,,,,,,99.99,99.99,1.00*09
$GPRMC,110306.600,V,3844.2062,N,00908.1877,W,8.44,169.67,250913,,,E*62
$GPVTG,169.67,T,,M,8.44,N,15.64,K,E*08
$GPZDA,110306.600,25,09,2013,,*5B
$GPGGA,110306.800,3844.2057,N,00908.1878,W,6,2,99.99,100.2,M,50.7,M,,*7B
$GPGLL,3844.2057,N,00908.1878,W,110306.800,V,E*59
$GPGSA,A,1,21,29,,,,,,,,,,,99.99,99.99,1.00*09
$GPGSV,4,1,13,21,64,093,37,16,47,315,23,06,42,271,17,31,42,189,24*73
$GPGSV,4,2,13,27,32,263,21,29,19,060,37,03,19,266,25,18,12,126,15*79
$GPGSV,4,3,13,25,08,116,,23,05,291,,13,04,318,,19,02,249,*72
$GPGSV,4,4,13,22,01,158,*46
$GPRMC,110306.800,V,3844.2057,N,00908.1878,W,8.39,168.97,250913,,,E*61
$GPVTG,168.97,T,,M,8.39,N,15.54,K,E*0F
$GPZDA,110306.800,25,09,2013,,*55
$GPGGA,110307.000,3844.2053,N,00908.1878,W,6,2,99.99,100.2,M,50.7,M,,*76
$GPGLL,3844.2053,N,00908.1878,W,110307.000,V,E*54
$GPGSA,A,1,21,29,,,,,,,,,,,99.99,99.99,1.00*09
$GPRMC,110307.000,V,3844.2053,N,00908.1878,W,8.11,168.86,250913,,,E*66
$GPVTG,168.86,T,,M,8.11,N,15.02,K,E*06
$GPZDA,110307.000,25,09,2013,,*5C
$GPGGA,110307.200,3844.2050,N,00908.1876,W,6,2,99.99,100.3,M,50.7,M,,*78
$GPGLL,3844.2050,N,00908.1876,W,110307.200,V,E*5B
$GPGSA,A,1,21,29,,,,,,,,,,,99.99,99.99,1.00*09
$GPRMC,110307.200,V,3844.2050,N,00908.1876,W,7.93,167.00,250913,,,E*6D
$GPVTG,167.00,T,,M,7.93,N,14.69,K,E*0E
$GPZDA,110307.200,25,09,2013,,*5E
$GPGGA,110307.400,3844.2047,N,00908.1874,W,6,2,99.99,100.3,M,50.7,M,,*7A
$GPGLL,3844.2047,N,00908.1874,W,110307.400,V,E*59
$GPGSA,A,1,21,29,,,,,,,,,,,99.99,99.99,1.00*09
$GPRMC,110307.400,V,3844.2047,N,00908.1874,W,7.72,165.36,250913,,,E*67
$GPVTG,165.36,T,,M,7.72,N,14.30,K,E*0A
$GPZDA,110307.400,25,09,2013,,*58
$GPGGA,110307.600,3844.2044,N,00908.1874,W,6,2,99.99,100.3,M,50.7,M,,*7B
$GPGLL,3844.2044,N,00908.1874,W,110307.600,V,E*58
$GPGSA,A,1,21,29,,,,,,,,,,,99.99,99.99,1.00*09
$GPRMC,110307.600,V,3844.2044,N,00908.1874,W,7.47,165.14,250913,,,E*60
$GPVTG,165.14,T,,M,7.47,N,13.85,K,E*05
$GPZDA,110307.600,25,09,2013,,*5A
$GPGGA,110307.800,3844.2040,N,00908.1873,W,6,2,99.99,100.4,M,50.7,M,,*71
$GPGLL,3844.2040,N,00908.1873,W,110307.800,V,E*55
$GPGSA,A,1,21,29,,,,,,,,,,,99.99,99.99,1.00*09
$GPGSV,4,1,13,21,64,093,35,16,47,315,27,06,42,271,18,31,42,189,23*7D
$GPGSV,4,2,13,27,32,263,21,03,19,266,24,29,18,060,37,18,12,126,15*79
$GPGSV,4,3,13,25,08,116,,23,05,291,,13,04,318,,19,02,249,*72
$GPGSV,4,4,13,22,01,158,*46
$GPRMC,110307.800,V,3844.2040,N,00908.1873,W,7.30,162.82,250913,,,E*65
$GPVTG,162.82,T,,M,7.30,N,13.53,K,E*06
$GPZDA,110307.800,25,09,2013,,*54
$GPGGA,110308.000,3844.2036,N,00908.1871,W,6,2,99.99,100.4,M,50.7,M,,*75
$GPGLL,3844.2036,N,00908.1871,W,110308.000,V,E*51
$GPGSA,A,1,21,29,,,,,,,,,,,99.99,99.99,1.00*09
$GPRMC,110308.000,V,3844.2036,N,00908.1871,W,7.28,162.42,250913,,,E*64
$GPVTG,162.42,T,,M,7.28,N,13.50,K,E*00
$GPZDA,110308.000,25,09,2013,,*53
$GPGGA,110308.200,3844.2032,N,00908.1869,W,6,2,99.99,100.4,M,50.7,M,,*7A
$GPGLL,3844.2032,N,00908.1869,W,110308.200,V,E*5E
$GPGSA,A,1,21,29,,,,,,,,,,,99.99,99.99,1.00*09
$GPRMC,110308.200,V,3844.2032,N,00908.1869,W,7.23,161.61,250913,,,E*62
$GPVTG,161.61,T,,M,7.23,N,13.40,K,E*08
$GPZDA,110308.200,25,09,2013,,*51
$GPGGA,110308.400,3844.2029,N,00908.1868,W,6,2,99.99,100.4,M,50.7,M,,*77
$GPGLL,3844.2029,N,00908.1868,W,110308.400,V,E*53
$GPGSA,A,1,21,29,,,,,,,,,,,99.99,99.99,1.00*09
$GPRMC,110308.400,V,3844.2029,N,00908.1868,W,7.07,159.83,250913,,,E*6E
$GPVTG,159.83,T,,M,7.07,N,13.09,K,E*04
$GPZDA,110308.400,25,09,2013,,*57
$GPGGA,110308.600,3844.2026,N,00908.1865,W,6,2,99.99,100.4,M,50.7,M,,*77
$GPGLL,3844.2026,N,00908.1865,W,110308.600,V,E*53
$GPGSA,A,1,21,29,,,,,,,,,,,99.99,99.99,1.00*09
$GPRMC,110308.600,V,3844.2026,N,00908.1865,W,6.86,157.28,250913,,,E*69
$GPVTG,157.28,T,,M,6.86,N,12.72,K,E*0E
$GPZDA,110308.600,25,09,2013,,*55
$GPGGA,110308.800,3844.2024,N,00908.1864,W,6,2,99.99,100.5,M,50.7,M,,*7B
$GPGLL,3844.2024,N,00908.1864,W,110308.800,V,E*5E
$GPGSA,A,1,21,29,,,,,,,,,,,99.99,99.99,1.00*09
$GPGSV,4,1,13,21,64,093,33,16,47,315,23,06,42,271,18,31,42,189,21*7D
$GPGSV,4,2,13,27,32,263,19,03,20,266,26,29,18,060,35,18,12,126,*7C
$GPGSV,4,3,13,25,08,116,,23,05,291,,13,04,318,,19,02,249,*72
$GPGSV,4,4,13,22,01,158,*46
$GPRMC,110308.800,V,3844.2024,N,00908.1864,W,6.62,156.03,250913,,,E*66
$GPVTG,156.03,T,,M,6.62,N,12.27,K,E*0C
$GPZDA,110308.800,25,09,2013,,*5B
$GPGGA,110309.000,3844.2022,N,00908.1862,W,6,2,99.99,100.5,M,50.7,M,,*72
$GPGLL,3844.2022,N,00908.1862,W,110309.000,V,E*57
$GPGSA,A,1,21,29,,,,,,,,,,,99.99,99.99,1.00*09
$GPRMC,110309.000,V,3844.2022,N,00908.1862,W,6.37,155.19,250913,,,E*67
$GPVTG,155.19,T,,M,6.37,N,11.81,K,E*0B
$GPZDA,110309.000,25,09,2013,,*52
$GPGGA,110309.200,3844.2020,N,00908.1860,W,6,2,99.99,100.5,M,50.7,M,,*70
$GPGLL,3844.2020,N,00908.1860,W,110309.200,V,E*55
$GPGSA,A,1,21,29,,,,,,,,,,,99.99,99.99,1.00*09
$GPRMC,110309.200,V,3844.2020,N,00908.1860,W,6.10,153.20,250913,,,E*6C
$GPVTG,153.20,T,,M,6.10,N,11.31,K,E*09
$GPZDA,110309.200,25,09,2013,,*50
$GPGGA,110309.400,3844.2018,N,00908.1859,W,6,2,99.99,100.6,M,50.7,M,,*74
$GPGLL,3844.2018,N,00908.1859,W,110309.400,V,E*52
$GPGSA,A,1,21,29,,,,,,,,,,,99.99,99.99,1.00*09
$GPRMC,110309.400,V,3844.2018,N,00908.1859,W,5.75,150.75,250913,,,E*68
$GPVTG,150.75,T,,M,5.75,N,10.65,K,E*0A
$GPZDA,110309.400,25,09,2013,,*56
$GPGGA,110309.600,3844.2018,N,00908.1857,W,6,2,99.99,100.6,M,50.7,M,,*78
$GPGLL,3844.2018,N,00908.1857,W,110309.600,V,E*5E
$GPGSA,A,1,21,29,,,,,,,,,,,99.99,99.99,1.00*09
$GPRMC,110309.600,V,3844.2018,N,00908.1857,W,5.26,150.28,250913,,,E*6A
$GPVTG,150.28,T,,M,5.26,N,9.75,K,E*3D
$GPZDA,110309.600,25,09,2013,,*54
$GPGGA,110309.800,3844.2017,N,00908.1856,W,6,2,99.99,100.7,M,50.7,M,,*79
$GPGLL,3844.2017,N,00908.1856,W,110309.800,V,E*5E
$GPGSA,A,1,21,29,,,,,,,,,,,99.99,99.99,1.00*09
$GPGSV,4,1,13,21,64,093,34,16,47,315,22,06,42,271,18,31,42,189,18*71
$GPGSV,4,2,13,27,32,263,17,03,20,266,26,29,18,060,38,18,12,126,*7F
$GPGSV,4,3,13,25,08,116,,23,05,291,,13,04,318,,19,02,249,*72
$GPGSV,4,4,13,22,01,158,*46
$GPRMC,110309.800,V,3844.2017,N,00908.1856,W,4.90,147.12,250913,,,E*69
$GPVTG,147.12,T,,M,4.90,N,9.08,K,E*34
$GPZDA,110309.800,25,09,2013,,*5A
$GPGGA,110310.000,3844.2017,N,00908.1854,W,6,2,99.99,100.7,M,50.7,M,,*7B
$GPGLL,3844.2017,N,00908.1854,W,110310.000,V,E*5C
$GPGSA,A,1,21,29,,,,,,,,,,,99.99,99.99,1.00*09
$GPRMC,110310.000,V,3844.2017,N,00908.1854,W,4.53,145.46,250913,,,E*67
$GPVTG,145.46,T,,M,4.53,N,8.40,K,E*35
$GPZDA,110310.000,25,09,2013,,*5A
$GPGGA,110310.200,3844.2017,N,00908.1852,W,6,2,99.99,100.7,M,50.7,M,,*7F
$GPGLL,3844.2017,N,00908.1852,W,110310.200,V,E*58
$GPGSA,A,1,21,29,,,,,,,,,,,99.99,99.99,1.00*09
$GPRMC,110310.200,V,3844.2017,N,00908.1852,W,4.21,141.58,250913,,,E*6D
$GPVTG,141.58,T,,M,4.21,N,7.80,K,E*38
$GPZDA,110310.200,25,09,2013,,*58
$GPGGA,110310.400,3844.2016,N,00908.1851,W,6,2,99.99,100.8,M,50.7,M,,*74
$GPGLL,3844.2016,N,00908.1851,W,110310.400,V,E*5C
$GPGSA,A,1,21,29,,,,,,,,,,,99.99,99.99,1.00*09
$GPRMC,110310.400,V,3844.2016,N,00908.1851,W,3.95,140.48,250913,,,E*61
$GPVTG,140.48,T,,M,3.95,N,7.32,K,E*39
$GPZDA,110310.400,25,09,2013,,*5E
$GPGGA,110310.600,3844.2015,N,00908.1849,W,6,2,99.99,100.8,M,50.7,M,,*7C
$GPGLL,3844.2015,N,00908.1849,W,110310.600,V,E*54
$GPGSA,A,1,21,29,,,,,,,,,,,99.99,99.99,1.00*09
$GPRMC,110310.600,V,3844.2015,N,00908.1849,W,3.71,142.04,250913,,,E*69
$GPVTG,142.04,T,,M,3.71,N,6.88,K,E*39
$GPZDA,110310.600,25,09,2013,,*5C
$GPGGA,110310.800,3844.2014,N,00908.1847,W,6,2,99.99,100.8,M,50.7,M,,*7D
$GPGLL,3844.2014,N,00908.1847,W,110310.800,V,E*55
$GPGSA,A,1,21,29,,,,,,,,,,,99.99,99.99,1.00*09
$GPGSV,4,1,13,21,64,093,34,16,47,315,19,06,42,271,25,31,42,189,23*7F
$GPGSV,4,2,13,27,32,263,16,03,20,266,19,29,18,060,38,18,12,126,*72
$GPGSV,4,3,13,25,08,116,,23,05,291,,13,04,318,,19,02,249,*72
$GPGSV,4,4,13,22,01,158,*46
$GPRMC,110310.800,V,3844.2014,N,00908.1847,W,3.51,139.85,250913,,,E*6F
$GPVTG,139.85,T,,M,3.51,N,6.51,K,E*3A
$GPZDA,110310.800,25,09,2013,,*52
$GPGGA,110311.000,3844.2014,N,00908.1845,W,6,2,99.99,100.8,M,50.7,M,,*76
$GPGLL,3844.2014,N,00908.1845,W,110311.000,V,E*5E
$GPGSA,A,1,21,29,,,,,,,,,,,99.99,99.99,1.00*09
$GPRMC,110311.000,V,3844.2014,N,00908.1845,W,3.27,138.73,250913,,,E*6D
$GPVTG,138.73,T,,M,3.27,N,6.07,K,E*30
$GPZDA,110311.000,25,09,2013,,*5B
$GPGGA,110311.200,3844.2014,N,00908.1843,W,6,2,99.99,100.8,M,50.7,M,,*72
$GPGLL,3844.2014,N,00908.1843,W,110311.200,V,E*5A
$GPGSA,A,1,21,29,,,,,,,,,,,99.99,99.99,1.00*09
$GPRMC,110311.200,V,3844.2014,N,00908.1843,W,2.95,136.89,250913,,,E*6A
$GPVTG,136.89,T,,M,2.95,N,5.47,K,E*34
$GPZDA,110311.200,25,09,2013,,*59
$GPGGA,110311.400,3844.2015,N,00908.1841,W,6,2,99.99,100.8,M,50.7,M,,*77
$GPGLL,3844.2015,N,00908.1841,W,110311.400,V,E*5F
$GPGSA,A,1,21,29,,,,,,,,,,,99.99,99.99,1.00*09
$GPRMC,110311.400,V,3844.2015,N,00908.1841,W,2.53,134.16,250913,,,E*61
$GPVTG,134.16,T,,M,2.53,N,4.70,K,E*3F
$GPZDA,110311.400,25,09,2013,,*5F
$GPGGA,110311.600,3844.2016,N,00908.1838,W,6,2,99.99,100.8,M,50.7,M,,*78
$GPGLL,3844.2016,N,00908.1838,W,110311.600,V,E*50
$GPGSA,A,1,21,29,,,,,,,,,,,99.99,99.99,1.00*09
$GPRMC,110311.600,V,3844.2016,N,00908.1838,W,2.47,125.90,250913,,,E*65
$GPVTG,125.90,T,,M,2.47,N,4.58,K,E*3E
$GPZDA,110311.600,25,09,2013,,*5D
$GPGGA,110311.800,3844.2015,N,00908.1836,W,6,2,99.99,100.9,M,50.7,M,,*7A
$GPGLL,3844.2015,N,00908.1836,W,110311.800,V,E*53
$GPGSA,A,1,21,29,,,,,,,,,,,99.99,99.99,1.00*09
$GPGSV,4,1,13,21,64,093,36,16,47,315,19,06,42,271,17,31,42,189,23*7C
$GPGSV,4,2,13,27,32,263,21,03,20,266,19,29,18,060,32,18,12,126,*7C
$GPGSV,4,3,13,25,08,116,,23,05,291,,13,04,318,,19,02,249,*72
$GPGSV,4,4,13,22,01,158,*46
$GPRMC,110311.800,V,3844.2015,N,00908.1836,W,2.26,125.90,250913,,,E*61
$GPVTG,125.90,T,,M,2.26,N,4.19,K,E*3C
$GPZDA,110311.800,25,09,2013,,*53
$GPGGA,110312.000,3844.2014,N,00908.1835,W,6,2,99.99,100.9,M,50.7,M,,*73
$GPGLL,3844.2014,N,00908.1835,W,110312.000,V,E*5A
$GPGSA,A,1,21,29,,,,,,,,,,,99.99,99.99,1.00*09
$GPRMC,110312.000,V,3844.2014,N,00908.1835,W,2.23,125.90,250913,,,E*6D
$GPVTG,125.90,T,,M,2.23,N,4.14,K,E*34
$GPZDA,110312.000,25,09,2013,,*58
$GPGGA,110312.200,3844.2013,N,00908.1833,W,6,2,99.99,101.0,M,50.7,M,,*78
$GPGLL,3844.2013,N,00908.1833,W,110312.200,V,E*59
$GPGSA,A,1,21,29,,,,,,,,,,,99.99,99.99,1.00*09
$GPRMC,110312.200,V,3844.2013,N,00908.1833,W,2.18,125.90,250913,,,E*66
$GPVTG,125.90,T,,M,2.18,N,4.04,K,E*3D
$GPZDA,110312.200,25,09,2013,,*5A
$GPGGA,110312.400,3844.2012,N,00908.1832,W,6,2,99.99,101.0,M,50.7,M,,*7E
$GPGLL,3844.2012,N,00908.1832,W,110312.400,V,E*5F
$GPGSA,A,1,21,29,,,,,,,,,,,99.99,99.99,1.00*09
$GPRMC,110312.400,V,3844.2012,N,00908.1832,W,1.92,125.90,250913,,,E*61
$GPVTG,125.90,T,,M,1.92,N,3.55,K,E*3F
$GPZDA,110312.400,25,09,2013,,*5C
$GPGGA,110312.600,3844.2012,N,00908.1830,W,6,2,99.99,101.0,M,50.7,M,,*7E
$GPGLL,3844.2012,N,00908.1830,W,110312.600,V,E*5F
$GPGSA,A,1,21,29,,,,,,,,,,,99.99,99.99,1.00*09
$GPRMC,110312.600,V,3844.2012,N,00908.1830,W,1.87,125.90,250913,,,E*65
$GPVTG,125.90,T,,M,1.87,N,3.47,K,E*38
$GPZDA,110312.600,25,09,2013,,*5E
$GPGGA,110312.800,3844.2012,N,00908.1829,W,6,2,99.99,101.1,M,50.7,M,,*79
$GPGLL,3844.2012,N,00908.1829,W,110312.800,V,E*59
$GPGSA,A,1,21,29,,,,,,,,,,,99.99,99.99,1.00*09
$GPGSV,4,1,13,21,64,093,36,16,47,315,24,06,42,271,17,31,42,189,23*72
$GPGSV,4,2,13,27,32,263,23,03,20,266,22,29,18,060,31,18,12,126,*75
$GPGSV,4,3,13,25,08,116,,23,05,291,,13,04,318,,19,02,249,*72
$GPGSV,4,4,13,22,01,158,*46
$GPRMC,110312.800,V,3844.2012,N,00908.1829,W,1.72,125.90,250913,,,E*69
$GPVTG,125.90,T,,M,1.72,N,3.18,K,E*38
$GPZDA,110312.800,25,09,2013,,*50
$GPGGA,110313.000,3844.2012,N,00908.1827,W,6,2,99.99,101.1,M,50.7,M,,*7E
$GPGLL,3844.2012,N,00908.1827,W,110313.000,V,E*5E
$GPGSA,A,1,21,29,,,,,,,,,,,99.99,99.99,1.00*09
$GPRMC,110313.000,V,3844.2012,N,00908.1827,W,1.54,125.90,250913,,,E*6A
$GPVTG,125.90,T,,M,1.54,N,2.86,K,E*3A
$GPZDA,110313.000,25,09,2013,,*59
$GPGGA,110313.200,3844.2012,N,00908.1825,W,6,2,99.99,101.1,M,50.7,M,,*7E
$GPGLL,3844.2012,N,00908.1825,W,110313.200,V,E*5E
$GPGSA,A,1,21,29,,,,,,,,,,,99.99,99.99,1.00*09
$GPRMC,110313.200,V,3844.2012,N,00908.1825,W,1.47,125.90,250913,,,E*68
$GPVTG,125.90,T,,M,1.47,N,2.73,K,E*32
$GPZDA,110313.200,25,09,2013,,*5B
$GPGGA,110313.400,3844.2013,N,00908.1823,W,6,2,99.99,101.1,M,50.7,M,,*7F
$GPGLL,3844.2013,N,00908.1823,W,110313.400,V,E*5F
$GPGSA,A,1,21,29,,,,,,,,,,,99.99,99.99,1.00*09
$GPRMC,110313.400,V,3844.2013,N,00908.1823,W,1.27,125.90,250913,,,E*6F
$GPVTG,125.90,T,,M,1.27,N,2.36,K,E*35
$GPZDA,110313.400,25,09,2013,,*5D
$GPGGA,110313.600,3844.2013,N,00908.1822,W,6,2,99.99,101.1,M,50.7,M,,*7C
$GPGLL,3844.2013,N,00908.1822,W,110313.600,V,E*5C
$GPGSA,A,1,21,29,,,,,,,,,,,99.99,99.99,1.00*09
$GPRMC,110313.600,V,3844.2013,N,00908.1822,W,1.08,125.90,250913,,,E*61
$GPVTG,125.90,T,,M,1.08,N,2.01,K,E*3C
$GPZDA,110313.600,25,09,2013,,*5F
$GPGGA,110313.800,3844.2013,N,00908.1820,W,6,2,99.99,101.1,M,50.7,M,,*70
$GPGLL,3844.2013,N,00908.1820,W,110313.800,V,E*50
$GPGSA,A,1,21,29,,,,,,,,,,,99.99,99.99,1.00*09
$GPGSV,4,1,13,21,64,093,33,16,47,315,22,06,42,271,17,31,42,189,20*72
$GPGSV,4,2,13,27,32,263,21,03,20,266,23,29,18,060,30,18,12,126,*77
$GPGSV,4,3,13,25,08,116,,23,05,291,,13,04,318,,19,02,249,*72
$GPGSV,4,4,13,22,01,158,*46
$GPRMC,110313.800,V,3844.2013,N,00908.1820,W,1.08,125.90,250913,,,E*6D
$GPVTG,125.90,T,,M,1.08,N,2.00,K,E*3D
$GPZDA,110313.800,25,09,2013,,*51
$GPGGA,110314.000,3844.2013,N,00908.1819,W,6,2,99.99,101.1,M,50.7,M,,*75
$GPGLL,3844.2013,N,00908.1819,W,110314.000,V,E*55
$GPGSA,A,1,21,29,,,,,,,,,,,99.99,99.99,1.00*09
$GPRMC,110314.000,V,3844.2013,N,00908.1819,W,1.08,125.90,250913,,,E*68
$GPVTG,125.90,T,,M,1.08,N,2.01,K,E*3C
$GPZDA,110314.000,25,09,2013,,*5E
$GPGGA,110314.200,3844.2013,N,00908.1818,W,6,2,99.99,101.1,M,50.7,M,,*76
$GPGLL,3844.2013,N,00908.1818,W,110314.200,V,E*56
$GPGSA,A,1,21,29,,,,,,,,,,,99.99,99.99,1.00*09
$GPRMC,110314.200,V,3844.2013,N,00908.1818,W,1.10,125.90,250913,,,E*62
$GPVTG,125.90,T,,M,1.10,N,2.04,K,E*30
$GPZDA,110314.200,25,09,2013,,*5C
$GPGGA,110314.400,3844.2012,N,00908.1816,W,6,2,99.99,101.1,M,50.7,M,,*7F
$GPGLL,3844.2012,N,00908.1816,W,110314.400,V,E*5F
$GPGSA,A,1,21,29,,,,,,,,,,,99.99,99.99,1.00*09
$GPRMC,110314.400,V,3844.2012,N,00908.1816,W,1.09,125.90,250913,,,E*63
$GPVTG,125.90,T,,M,1.09,N,2.02,K,E*3E
$GPZDA,110314.400,25,09,2013,,*5A
$GPGGA,110314.600,3844.2012,N,00908.1814,W,6,2,99.99,101.1,M,50.7,M,,*7F
$GPGLL,3844.2012,N,00908.1814,W,110314.600,V,E*5F
$GPGSA,A,1,21,29,,,,,,,,,,,99.99,99.99,1.00*09
$GPRMC,110314.600,V,3844.2012,N,00908.1814,W,1.09,125.90,250913,,,E*63
$GPVTG,125.90,T,,M,1.09,N,2.01,K,E*3D
$GPZDA,110314.600,25,09,2013,,*58
$GPGGA,110314.800,3844.2012,N,00908.1813,W,6,2,99.99,101.1,M,50.7,M,,*76
$GPGLL,3844.2012,N,00908.1813,W,110314.800,V,E*56
$GPGSA,A,1,21,29,,,,,,,,,,,99.99,99.99,1.00*09
$GPGSV,4,1,13,21,64,093,33,16,47,315,24,06,42,271,17,31,42,189,20*74
$GPGSV,4,2,13,27,32,263,19,03,20,266,23,29,18,060,28,18,12,126,*75
$GPGSV,4,3,13,25,08,116,,23,05,291,,13,04,318,,19,02,249,*72
$GPGSV,4,4,13,22,01,158,*46
$GPRMC,110314.800,V,3844.2012,N,00908.1813,W,1.07,125.90,250913,,,E*64
$GPVTG,125.90,T,,M,1.07,N,1.99,K,E*31
$GPZDA,110314.800,25,09,2013,,*56
$GPGGA,110315.000,3844.2011,N,00908.1812,W,6,2,99.99,101.2,M,50.7,M,,*7E
$GPGLL,3844.2011,N,00908.1812,W,110315.000,V,E*5D
$GPGSA,A,1,21,29,,,,,,,,,,,99.99,99.99,1.00*09
$GPRMC,110315.000,V,3844.2011,N,00908.1812,W,1.05,125.90,250913,,,E*6D
$GPVTG,125.90,T,,M,1.05,N,1.95,K,E*3F
$GPZDA,110315.000,25,09,2013,,*5F
$GPGGA,110315.200,3844.2009,N,00908.1810,W,6,2,99.99,101.2,M,50.7,M,,*77
$GPGLL,3844.2009,N,00908.1810,W,110315.200,V,E*54
$GPGSA,A,1,21,29,,,,,,,,,,,99.99,99.99,1.00*09
$GPRMC,110315.200,V,3844.2009,N,00908.1810,W,1.05,125.90,250913,,,E*64
$GPVTG,125.90,T,,M,1.05,N,1.95,K,E*3F
$GPZDA,110315.200,25,09,2013,,*5D
$GPGGA,110315.400,3844.2006,N,00908.1810,W,0,2,,101.2,M,50.7,M,,*56
$GPGLL,3844.2006,N,00908.1810,W,110315.400,V,N*56
$GPGSA,A,1,,,,,,,,,,,,,,,*1E
$GPRMC,110315.400,V,3844.2006,N,00908.1810,W,1.08,125.90,250913,,,N*6B
$GPVTG,125.90,T,,M,1.08,N,2.01,K,N*37
$GPZDA,110315.400,25,09,2013,,*5B
$GPGGA,110315.600,3844.2004,N,00908.1810,W,6,2,99.99,101.2,M,50.7,M,,*7E
$GPGLL,3844.2004,N,00908.1810,W,110315.600,V,E*5D
$GPGSA,A,1,21,29,,,,,,,,,,,99.99,99.99,1.00*09
$GPRMC,110315.600,V,3844.2004,N,00908.1810,W,1.11,125.90,250913,,,E*68
$GPVTG,125.90,T,,M,1.11,N,2.05,K,E*30
$GPZDA,110315.600,25,09,2013,,*59
$GPGGA,110315.800,3844.2001,N,00908.1810,W,6,2,99.99,101.2,M,50.7,M,,*75
$GPGLL,3844.2001,N,00908.1810,W,110315.800,V,E*56
$GPGSA,A,1,21,29,,,,,,,,,,,99.99,99.99,1.00*09
$GPGSV,4,1,13,21,64,093,34,16,47,315,24,06,42,271,17,31,42,189,20*73
$GPGSV,4,2,13,27,32,263,19,03,20,266,23,29,18,060,37,18,12,126,*7B
$GPGSV,4,3,13,25,08,116,,23,05,291,,13,04,318,,19,02,249,*72
$GPGSV,4,4,13,22,01,158,*46
$GPRMC,110315.800,V,3844.2001,N,00908.1810,W,1.16,125.90,250913,,,E*64
$GPVTG,125.90,T,,M,1.16,N,2.15,K,E*36
$GPZDA,110315.800,25,09,2013,,*57
$GPGGA,110316.000,3844.1998,N,00908.1809,W,6,2,99.99,101.2,M,50.7,M,,*7C
$GPGLL,3844.1998,N,00908.1809,W,110316.000,V,E*5F
$GPGSA,A,1,21,29,,,,,,,,,,,99.99,99.99,1.00*09
$GPRMC,110316.000,V,3844.1998,N,00908.1809,W,1.34,125.90,250913,,,E*6D
$GPVTG,125.90,T,,M,1.34,N,2.49,K,E*3F
$GPZDA,110316.000,25,09,2013,,*5C
$GPGGA,110316.200,3844.1994,N,00908.1808,W,6,2,99.99,101.2,M,50.7,M,,*73
$GPGLL,3844.1994,N,00908.1808,W,110316.200,V,E*50
$GPGSA,A,1,21,29,,,,,,,,,,,99.99,99.99,1.00*09
$GPRMC,110316.200,V,3844.1994,N,00908.1808,W,1.41,125.90,250913,,,E*60
$GPVTG,125.90,T,,M,1.41,N,2.60,K,E*36
$GPZDA,110316.200,25,09,2013,,*5E
$GPGGA,110316.400,3844.1992,N,00908.1807,W,6,2,99.99,101.2,M,50.7,M,,*7C
$GPGLL,3844.1992,N,00908.1807,W,110316.400,V,E*5F
$GPGSA,A,1,21,29,,,,,,,,,,,99.99,99.99,1.00*09
$GPRMC,110316.400,V,3844.1992,N,00908.1807,W,1.44,125.90,250913,,,E*6A
$GPVTG,125.90,T,,M,1.44,N,2.67,K,E*34
$GPZDA,110316.400,25,09,2013,,*58
$GPGGA,110316.600,3844.1991,N,00908.1805,W,6,2,99.99,101.2,M,50.7,M,,*7F
$GPGLL,3844.1991,N,00908.1805,W,110316.600,V,E*5C
$GPGSA,A,1,21,29,,,,,,,,,,,99.99,99.99,1.00*09
$GPRMC,110316.600,V,3844.1991,N,00908.1805,W,1.46,125.90,250913,,,E*6B
$GPVTG,125.90,T,,M,1.46,N,2.70,K,E*30
$GPZDA,110316.600,25,09,2013,,*5A
$GPGGA,110316.800,3844.1988,N,00908.1803,W,6,2,99.99,101.2,M,50.7,M,,*7F
$GPGLL,3844.1988,N,00908.1803,W,110316.800,V,E*5C
$GPGSA,A,1,21,29,,,,,,,,,,,99.99,99.99,1.00*09
$GPGSV,4,1,13,21,64,093,34,16,47,315,24,06,42,271,16,31,42,189,21*73
$GPGSV,4,2,13,27,32,263,22,03,20,266,23,29,18,060,36,18,12,126,*72
$GPGSV,4,3,13,25,08,116,,23,05,291,,13,04,318,,19,02,249,*72
$GPGSV,4,4,13,22,01,158,*46
$GPRMC,110316.800,V,3844.1988,N,00908.1803,W,1.48,125.90,250913,,,E*65
$GPVTG,125.90,T,,M,1.48,N,2.75,K,E*3B
$GPZDA,110316.800,25,09,2013,,*54
$GPGGA,110317.000,3844.1986,N,00908.1799,W,6,2,99.99,101.2,M,50.7,M,,*74
$GPGLL,3844.1986,N,00908.1799,W,110317.000,V,E*57
$GPGSA,A,1,21,29,,,,,,,,,,,99.99,99.99,1.00*09
$GPRMC,110317.000,V,3844.1986,N,00908.1799,W,1.47,125.90,250913,,,E*61
$GPVTG,125.90,T,,M,1.47,N,2.73,K,E*32
$GPZDA,110317.000,25,09,2013,,*5D
$GPGGA,110317.200,3844.1985,N,00908.1797,W,6,2,99.99,101.2,M,50.7,M,,*7B
$GPGLL,3844.1985,N,00908.1797,W,110317.200,V,E*58
$GPGSA,A,1,21,29,,,,,,,,,,,99.99,99.99,1.00*09
$GPRMC,110317.200,V,3844.1985,N,00908.1797,W,1.48,125.90,250913,,,E*61
$GPVTG,125.90,T,,M,1.48,N,2.75,K,E*3B
$GPZDA,110317.200,25,09,2013,,*5F
$GPGGA,110317.400,3844.1984,N,00908.1796,W,6,2,99.99,101.2,M,50.7,M,,*7D
$GPGLL,3844.1984,N,00908.1796,W,110317.400,V,E*5E
$GPGSA,A,1,21,29,,,,,,,,,,,99.99,99.99,1.00*09
$GPRMC,110317.400,V,3844.1984,N,00908.1796,W,1.45,125.90,250913,,,E*6A
$GPVTG,125.90,T,,M,1.45,N,2.69,K,E*3B
$GPZDA,110317.400,25,09,2013,,*59
$GPGGA,110317.600,3844.1983,N,00908.1796,W,0,2,,101.2,M,50.7,M,,*50
$GPGLL,3844.1983,N,00908.1796,W,110317.600,V,N*50
$GPGSA,A,1,,,,,,,,,,,,,,,*1E
$GPRMC,110317.600,V,3844.1983,N,00908.1796,W,1.14,125.90,250913,,,N*60
$GPVTG,125.90,T,,M,1.14,N,2.12,K,N*38
$GPZDA,110317.600,25,09,2013,,*5B
$GPGGA,110317.800,3844.1983,N,00908.1793,W,6,2,99.99,101.2,M,50.7,M,,*73
$GPGLL,3844.1983,N,00908.1793,W,110317.800,V,E*50
$GPGSA,A,1,21,29,,,,,,,,,,,99.99,99.99,1.00*09
$GPGSV,4,1,13,21,64,093,34,16,47,316,25,06,42,271,16,31,42,189,22*72
$GPGSV,4,2,13,27,32,263,22,03,20,266,27,29,18,060,37,18,12,126,*77
$GPGSV,4,3,13,25,08,116,,23,05,291,,13,04,317,,19,02,249,*7D
$GPGSV,4,4,13,22,01,158,*46
$GPRMC,110317.800,V,3844.1983,N,00908.1793,W,0.93,125.90,250913,,,E*6E
$GPVTG,125.90,T,,M,0.93,N,1.72,K,E*38
$GPZDA,110317.800,25,09,2013,,*55
$GPGGA,110318.000,3844.1982,N,00908.1792,W,6,2,99.99,101.2,M,50.7,M,,*74
$GPGLL,3844.1982,N,00908.1792,W,110318.000,V,E*57
$GPGSA,A,1,21,29,,,,,,,,,,,99.99,99.99,1.00*09
$GPRMC,110318.000,V,3844.1982,N,00908.1792,W,0.90,125.90,250913,,,E*6A
$GPVTG,125.90,T,,M,0.90,N,1.66,K,E*3E
$GPZDA,110318.000,25,09,2013,,*52
$GPGGA,110318.200,3844.1979,N,00908.1791,W,6,2,99.99,101.3,M,50.7,M,,*70
$GPGLL,3844.1979,N,00908.1791,W,110318.200,V,E*52
$GPGSA,A,1,21,29,,,,,,,,,,,99.99,99.99,1.00*09
$GPRMC,110318.200,V,3844.1979,N,00908.1791,W,0.96,125.90,250913,,,E*69
$GPVTG,125.90,T,,M,0.96,N,1.79,K,E*36
$GPZDA,110318.200,25,09,2013,,*50
$GPGGA,110318.400,3844.1978,N,00908.1791,W,6,2,99.99,101.3,M,50.7,M,,*77
$GPGLL,3844.1978,N,00908.1791,W,110318.400,V,E*55
$GPGSA,A,1,21,29,,,,,,,,,,,99.99,99.99,1.00*09
$GPRMC,110318.400,V,3844.1978,N,00908.1791,W,0.96,125.90,250913,,,E*6E
$GPVTG,125.90,T,,M,0.96,N,1.78,K,E*37
$GPZDA,110318.400,25,09,2013,,*56
$GPGGA,110318.600,3844.1976,N,00908.1790,W,6,2,99.99,101.2,M,50.7,M,,*7B
$GPGLL,3844.1976,N,00908.1790,W,110318.600,V,E*58
$GPGSA,A,1,21,29,,,,,,,,,,,99.99,99.99,1.00*09
$GPRMC,110318.600,V,3844.1976,N,00908.1790,W,0.79,125.90,250913,,,E*62
$GPVTG,125.90,T,,M,0.79,N,1.47,K,E*3A
$GPZDA,110318.600,25,09,2013,,*54
$GPGGA,110318.800,3844.1974,N,00908.1788,W,6,2,99.99,101.3,M,50.7,M,,*7F
$GPGLL,3844.1974,N,00908.1788,W,110318.800,V,E*5D
$GPGSA,A,1,21,29,,,,,,,,,,,99.99,99.99,1.00*09
$GPGSV,4,1,13,21,64,092,33,16,47,316,25,06,42,271,17,31,42,189,18*7C
$GPGSV,4,2,13,27,32,263,18,03,20,266,26,29,18,060,36,18,12,126,*7E
$GPGSV,4,3,13,25,08,116,,23,05,291,,13,04,317,,19,02,249,*7D
$GPGSV,4,4,13,22,01,158,*46
$GPRMC,110318.800,V,3844.1974,N,00908.1788,W,1.05,125.90,250913,,,E*6D
$GPVTG,125.90,T,,M,1.05,N,1.94,K,E*3E
$GPZDA,110318.800,25,09,2013,,*5A
$GPGGA,110319.000,3844.1972,N,00908.1785,W,0,2,,101.3,M,50.7,M,,*55
$GPGLL,3844.1972,N,00908.1785,W,110319.000,V,N*54
$GPGSA,A,1,,,,,,,,,,,,,,,*1E
$GPRMC,110319.000,V,3844.1972,N,00908.1785,W,1.07,125.90,250913,,,N*66
$GPVTG,125.90,T,,M,1.07,N,1.98,K,N*3B
$GPZDA,110319.000,25,09,2013,,*53
$GPGGA,110319.200,3844.1971,N,00908.1783,W,6,2,99.99,101.3,M,50.7,M,,*7A
$GPGLL,3844.1971,N,00908.1783,W,110319.200,V,E*58
$GPGSA,A,1,21,29,,,,,,,,,,,99.99,99.99,1.00*09
$GPRMC,110319.200,V,3844.1971,N,00908.1783,W,1.09,125.90,250913,,,E*64
$GPVTG,125.90,T,,M,1.09,N,2.02,K,E*3E
$GPZDA,110319.200,25,09,2013,,*51
$GPGGA,110319.400,3844.1969,N,00908.1781,W,6,2,99.99,101.3,M,50.7,M,,*77
$GPGLL,3844.1969,N,00908.1781,W,110319.400,V,E*55
$GPGSA,A,1,21,29,,,,,,,,,,,99.99,99.99,1.00*09
$GPRMC,110319.400,V,3844.1969,N,00908.1781,W,1.03,125.90,250913,,,E*63
$GPVTG,125.90,T,,M,1.03,N,1.91,K,E*3D
$GPZDA,110319.400,25,09,2013,,*57
$GPGGA,110319.600,3844.1968,N,00908.1780,W,6,2,99.99,101.3,M,50.7,M,,*75
$GPGLL,3844.1968,N,00908.1780,W,110319.600,V,E*57
$GPGSA,A,1,21,29,,,,,,,,,,,99.99,99.99,1.00*09
$GPRMC,110319.600,V,3844.1968,N,00908.1780,W,0.79,125.90,250913,,,E*6D
$GPVTG,125.90,T,,M,0.79,N,1.46,K,E*3B
$GPZDA,110319.600,25,09,2013,,*55
$GPGGA,110319.800,3844.1965,N,00908.1779,W,0,2,,101.3,M,50.7,M,,*58
$GPGLL,3844.1965,N,00908.1779,W,110319.800,V,N*59
$GPGSA,A,1,,,,,,,,,,,,,,,*1E
$GPGSV,4,1,13,21,64,092,33,16,47,316,25,06,42,271,18,31,42,189,20*78
$GPGSV,4,2,13,27,32,263,18,03,20,266,22,29,18,060,36,18,12,126,*7A
$GPGSV,4,3,13,25,08,116,,23,05,291,,13,04,317,,19,02,249,*7D
$GPGSV,4,4,13,22,01,158,*46
$GPRMC,110319.800,V,3844.1965,N,00908.1779,W,0.78,125.90,250913,,,N*62
$GPVTG,125.90,T,,M,0.78,N,1.44,K,N*33
$GPZDA,110319.800,25,09,2013,,*5B
$GPGGA,110320.000,3844.1962,N,00908.1779,W,0,2,,101.3,M,50.7,M,,*5D
$GPGLL,3844.1962,N,00908.1779,W,110320.000,V,N*5C
$GPGSA,A,1,,,,,,,,,,,,,,,*1E
$GPRMC,110320.000,V,3844.1962,N,00908.1779,W,0.83,125.90,250913,,,N*63
$GPVTG,125.90,T,,M,0.83,N,1.54,K,N*36
$GPZDA,110320.000,25,09,2013,,*59
$GPGGA,110320.200,3844.1959,N,00908.1778,W,0,2,,101.3,M,50.7,M,,*56
$GPGLL,3844.1959,N,00908.1778,W,110320.200,V,N*57
$GPGSA,A,1,,,,,,,,,,,,,,,*1E
$GPRMC,110320.200,V,3844.1959,N,00908.1778,W,1.13,125.90,250913,,,N*60
$GPVTG,125.90,T,,M,1.13,N,2.10,K,N*3D
$GPZDA,110320.200,25,09,2013,,*5B
$GPGGA,110320.400,3844.1955,N,00908.1777,W,6,2,99.99,101.3,M,50.7,M,,*7B
$GPGLL,3844.1955,N,00908.1777,W,110320.400,V,E*59
$GPGSA,A,1,21,29,,,,,,,,,,,99.99,99.99,1.00*09
$GPRMC,110320.400,V,3844.1955,N,00908.1777,W,1.11,125.90,250913,,,E*6C
$GPVTG,125.90,T,,M,1.11,N,2.06,K,E*33
$GPZDA,110320.400,25,09,2013,,*5D
$GPGGA,110320.600,3844.1951,N,00908.1775,W,0,2,,101.3,M,50.7,M,,*57
$GPGLL,3844.1951,N,00908.1775,W,110320.600,V,N*56
$GPGSA,A,1,,,,,,,,,,,,,,,*1E
$GPRMC,110320.600,V,3844.1951,N,00908.1775,W,1.12,125.90,250913,,,N*60
$GPVTG,125.90,T,,M,1.12,N,2.08,K,N*35
$GPZDA,110320.600,25,09,2013,,*5F
$GPGGA,110320.800,3844.1948,N,00908.1774,W,0,2,,101.3,M,50.7,M,,*50
$GPGLL,3844.1948,N,00908.1774,W,110320.800,V,N*51
$GPGSA,A,1,,,,,,,,,,,,,,,*1E
$GPGSV,4,1,13,21,64,092,33,16,47,316,24,06,42,271,17,31,42,189,23*75
$GPGSV,4,2,13,27,32,263,18,03,20,266,21,29,18,060,37,18,12,126,*78
$GPGSV,4,3,13,25,08,116,,23,05,291,,13,04,317,,19,02,249,*7D
$GPGSV,4,4,13,22,01,158,*46
$GPRMC,110320.800,V,3844.1948,N,00908.1774,W,1.18,125.90,250913,,,N*6D
$GPVTG,125.90,T,,M,1.18,N,2.18,K,N*3E
$GPZDA,110320.800,25,09,2013,,*51
$GPGGA,110321.000,3844.1945,N,00908.1773,W,6,2,99.99,101.3,M,50.7,M,,*7B
$GPGLL,3844.1945,N,00908.1773,W,110321.000,V,E*59
$GPGSA,A,1,21,29,,,,,,,,,,,99.99,99.99,1.00*09
$GPRMC,110321.000,V,3844.1945,N,00908.1773,W,0.96,125.90,250913,,,E*62
$GPVTG,125.90,T,,M,0.96,N,1.79,K,E*36
$GPZDA,110321.000,25,09,2013,,*58
$GPGGA,110321.200,3844.1942,N,00908.1772,W,6,2,99.99,101.3,M,50.7,M,,*7F
$GPGLL,3844.1942,N,00908.1772,W,110321.200,V,E*5D
$GPGSA,A,1,21,29,,,,,,,,,,,99.99,99.99,1.00*09
$GPRMC,110321.200,V,3844.1942,N,00908.1772,W,0.93,125.90,250913,,,E*63
$GPVTG,125.90,T,,M,0.93,N,1.72,K,E*38
$GPZDA,110321.200,25,09,2013,,*5A
$GPGGA,110321.400,3844.1937,N,00908.1770,W,6,2,99.99,101.3,M,50.7,M,,*79
$GPGLL,3844.1937,N,00908.1770,W,110321.400,V,E*5B
$GPGSA,A,1,21,29,,,,,,,,,,,99.99,99.99,1.00*09
$GPRMC,110321.400,V,3844.1937,N,00908.1770,W,1.44,125.90,250913,,,E*6E
$GPVTG,125.90,T,,M,1.44,N,2.67,K,E*34
$GPZDA,110321.400,25,09,2013,,*5C
$GPGGA,110321.600,3844.1934,N,00908.1769,W,6,2,99.99,101.3,M,50.7,M,,*70
$GPGLL,3844.1934,N,00908.1769,W,110321.600,V,E*52
$GPGSA,A,1,21,29,,,,,,,,,,,99.99,99.99,1.00*09
$GPRMC,110321.600,V,3844.1934,N,00908.1769,W,1.41,125.90,250913,,,E*62
$GPVTG,125.90,T,,M,1.41,N,2.62,K,E*34
$GPZDA,110321.600,25,09,2013,,*5E
$GPGGA,110321.800,3844.1931,N,00908.1769,W,6,2,99.99,101.3,M,50.7,M,,*7B
$GPGLL,3844.1931,N,00908.1769,W,110321.800,V,E*59
$GPGSA,A,1,21,29,,,,,,,,,,,99.99,99.99,1.00*09
$GPGSV,4,1,13,21,64,092,34,16,47,316,20,06,42,271,17,31,42,189,20*75
$GPGSV,4,2,13,27,32,263,18,03,20,266,21,29,18,060,37,18,12,126,*78
$GPGSV,4,3,13,25,08,116,,23,05,291,,13,04,317,,19,02,249,*7D
$GPGSV,4,4,13,22,01,158,*46
$GPRMC,110321.800,V,3844.1931,N,00908.1769,W,1.39,125.90,250913,,,E*66
$GPVTG,125.90,T,,M,1.39,N,2.57,K,E*3D
$GPZDA,110321.800,25,09,2013,,*50
$GPGGA,110322.000,3844.1928,N,00908.1767,W,6,2,99.99,101.3,M,50.7,M,,*76
$GPGLL,3844.1928,N,00908.1767,W,110322.000,V,E*54
$GPGSA,A,1,21,29,,,,,,,,,,,99.99,99.99,1.00*09
$GPRMC,110322.000,V,3844.1928,N,00908.1767,W,1.37,125.90,250913,,,E*65
$GPVTG,125.90,T,,M,1.37,N,2.54,K,E*30
$GPZDA,110322.000,25,09,2013,,*5B
$GPGGA,110322.200,3844.1924,N,00908.1767,W,6,2,99.99,101.3,M,50.7,M,,*78
$GPGLL,3844.1924,N,00908.1767,W,110322.200,V,E*5A
$GPGSA,A,1,21,29,,,,,,,,,,,99.99,99.99,1.00*09
$GPRMC,110322.200,V,3844.1924,N,00908.1767,W,1.56,125.90,250913,,,E*6C
$GPVTG,125.90,T,,M,1.56,N,2.90,K,E*3F
$GPZDA,110322.200,25,09,2013,,*59
$GPGGA,110322.400,3844.1922,N,00908.1767,W,0,2,,101.3,M,50.7,M,,*50
$GPGLL,3844.1922,N,00908.1767,W,110322.400,V,N*51
$GPGSA,A,1,,,,,,,,,,,,,,,*1E
$GPRMC,110322.400,V,3844.1922,N,00908.1767,W,1.36,125.90,250913,,,N*61
$GPVTG,125.90,T,,M,1.36,N,2.51,K,N*3F
$GPZDA,110322.400,25,09,2013,,*5F
$GPGGA,110322.600,3844.1920,N,00908.1767,W,6,2,99.99,101.3,M,50.7,M,,*78
$GPGLL,3844.1920,N,00908.1767,W,110322.600,V,E*5A
$GPGSA,A,1,21,29,,,,,,,,,,,99.99,99.99,1.00*09
$GPRMC,110322.600,V,3844.1920,N,00908.1767,W,1.34,125.90,250913,,,E*68
$GPVTG,125.90,T,,M,1.34,N,2.48,K,E*3E
$GPZDA,110322.600,25,09,2013,,*5D
$GPGGA,110322.800,3844.1919,N,00908.1766,W,6,2,99.99,101.3,M,50.7,M,,*7D
$GPGLL,3844.1919,N,00908.1766,W,110322.800,V,E*5F
$GPGSA,A,1,21,29,,,,,,,,,,,99.99,99.99,1.00*09
$GPGSV,4,1,13,21,64,092,33,16,47,316,20,06,42,271,18,31,42,189,18*76
$GPGSV,4,2,13,27,32,263,20,03,20,266,20,29,18,060,37,18,12,126,*72
$GPGSV,4,3,13,25,08,116,,23,05,291,,13,04,317,,19,02,249,*7D
$GPGSV,4,4,13,22,01,158,*46
$GPRMC,110322.800,V,3844.1919,N,00908.1766,W,1.29,125.90,250913,,,E*61
$GPVTG,125.90,T,,M,1.29,N,2.39,K,E*34
$GPZDA,110322.800,25,09,2013,,*53
$GPGGA,110323.000,3844.1918,N,00908.1764,W,6,2,99.99,101.3,M,50.7,M,,*77
$GPGLL,3844.1918,N,00908.1764,W,110323.000,V,E*55
$GPGSA,A,1,21,29,,,,,,,,,,,99.99,99.99,1.00*09
$GPRMC,110323.000,V,3844.1918,N,00908.1764,W,1.26,125.90,250913,,,E*64
$GPVTG,125.90,T,,M,1.26,N,2.34,K,E*36
$GPZDA,110323.000,25,09,2013,,*5A
$GPGGA,110323.200,3844.1917,N,00908.1763,W,6,2,99.99,101.3,M,50.7,M,,*7D
$GPGLL,3844.1917,N,00908.1763,W,110323.200,V,E*5F
$GPGSA,A,1,21,29,,,,,,,,,,,99.99,99.99,1.00*09
$GPRMC,110323.200,V,3844.1917,N,00908.1763,W,1.32,125.90,250913,,,E*6B
$GPVTG,125.90,T,,M,1.32,N,2.44,K,E*34
$GPZDA,110323.200,25,09,2013,,*58
$GPGGA,110323.400,3844.1913,N,00908.1762,W,6,2,99.99,101.3,M,50.7,M,,*7E
$GPGLL,3844.1913,N,00908.1762,W,110323.400,V,E*5C
$GPGSA,A,1,21,29,,,,,,,,,,,99.99,99.99,1.00*09
$GPRMC,110323.400,V,3844.1913,N,00908.1762,W,1.70,125.90,250913,,,E*6E
$GPVTG,125.90,T,,M,1.70,N,3.15,K,E*37
$GPZDA,110323.400,25,09,2013,,*5E
$GPGGA,110323.600,3844.1909,N,00908.1762,W,0,2,,101.3,M,50.7,M,,*5F
$GPGLL,3844.1909,N,00908.1762,W,110323.600,V,N*5E
$GPGSA,A,1,,,,,,,,,,,,,,,*1E
$GPRMC,110323.600,V,3844.1909,N,00908.1762,W,1.67,125.90,250913,,,N*6A
$GPVTG,125.90,T,,M,1.67,N,3.09,K,N*37
$GPZDA,110323.600,25,09,2013,,*5C
$GPGGA,110323.800,3844.1904,N,00908.1761,W,6,2,99.99,101.3,M,50.7,M,,*77
$GPGLL,3844.1904,N,00908.1761,W,110323.800,V,E*55
$GPGSA,A,1,21,29,,,,,,,,,,,99.99,99.99,1.00*09
$GPGSV,4,1,13,21,64,092,33,16,47,316,20,06,42,271,18,31,42,189,25*78
$GPGSV,4,2,13,27,32,263,27,03,20,266,22,29,18,060,35,18,12,126,*75
$GPGSV,4,3,13,25,08,116,,23,05,291,,13,04,317,,19,02,249,*7D
$GPGSV,4,4,13,22,01,158,*46
$GPRMC,110323.800,V,3844.1904,N,00908.1761,W,1.96,125.90,250913,,,E*6F
$GPVTG,125.90,T,,M,1.96,N,3.64,K,E*39
$GPZDA,110323.800,25,09,2013,,*52
$GPGGA,110324.000,3844.1899,N,00908.1761,W,6,2,99.99,101.3,M,50.7,M,,*7D
$GPGLL,3844.1899,N,00908.1761,W,110324.000,V,E*5F
$GPGSA,A,1,21,29,,,,,,,,,,,99.99,99.99,1.00*09
$GPRMC,110324.000,V,3844.1899,N,00908.1761,W,2.02,125.90,250913,,,E*6B
$GPVTG,125.90,T,,M,2.02,N,3.75,K,E*37
$GPZDA,110324.000,25,09,2013,,*5D
$GPGGA,110324.200,3844.1895,N,00908.1761,W,6,2,99.99,101.3,M,50.7,M,,*73
$GPGLL,3844.1895,N,00908.1761,W,110324.200,V,E*51
$GPGSA,A,1,21,29,,,,,,,,,,,99.99,99.99,1.00*09
$GPRMC,110324.200,V,3844.1895,N,00908.1761,W,2.07,125.90,250913,,,E*60
$GPVTG,125.90,T,,M,2.07,N,3.83,K,E*3B
$GPZDA,110324.200,25,09,2013,,*5F
$GPGGA,110324.400,3844.1893,N,00908.1762,W,6,2,99.99,101.3,M,50.7,M,,*70
$GPGLL,3844.1893,N,00908.1762,W,110324.400,V,E*52
$GPGSA,A,1,21,29,,,,,,,,,,,99.99,99.99,1.00*09
$GPRMC,110324.400,V,3844.1893,N,00908.1762,W,2.10,125.90,250913,,,E*65
$GPVTG,125.90,T,,M,2.10,N,3.89,K,E*37
$GPZDA,110324.400,25,09,2013,,*59
$GPGGA,110324.600,3844.1890,N,00908.1763,W,6,2,99.99,101.3,M,50.7,M,,*70
$GPGLL,3844.1890,N,00908.1763,W,110324.600,V,E*52
$GPGSA,A,1,21,29,,,,,,,,,,,99.99,99.99,1.00*09
$GPRMC,110324.600,V,3844.1890,N,00908.1763,W,2.16,125.90,250913,,,E*63
$GPVTG,125.90,T,,M,2.16,N,4.00,K,E*37
$GPZDA,110324.600,25,09,2013,,*5B
$GPGGA,110324.800,3844.1888,N,00908.1764,W,6,2,99.99,101.3,M,50.7,M,,*70
$GPGLL,3844.1888,N,00908.1764,W,110324.800,V,E*52
$GPGSA,A,1,21,29,,,,,,,,,,,99.99,99.99,1.00*09
$GPGSV,4,1,13,21,64,092,30,16,47,316,20,06,42,271,19,31,42,189,30*7E
$GPGSV,4,2,13,27,32,263,27,03,20,266,22,29,18,060,34,18,12,126,*74
$GPGSV,4,3,13,25,08,116,,23,05,291,,13,04,317,,19,02,250,*75
$GPGSV,4,4,13,22,01,158,*46
$GPRMC,110324.800,V,3844.1888,N,00908.1764,W,1.84,125.90,250913,,,E*6B
$GPVTG,125.90,T,,M,1.84,N,3.41,K,E*3D
$GPZDA,110324.800,25,09,2013,,*55
$GPGGA,110325.000,3844.1886,N,00908.1766,W,6,2,99.99,101.3,M,50.7,M,,*75
$GPGLL,3844.1886,N,00908.1766,W,110325.000,V,E*57
$GPGSA,A,1,21,29,,,,,,,,,,,99.99,99.99,1.00*09
$GPRMC,110325.000,V,3844.1886,N,00908.1766,W,2.17,125.90,250913,,,E*67
$GPVTG,125.90,T,,M,2.17,N,4.01,K,E*37
$GPZDA,110325.000,25,09,2013,,*5C
$GPGGA,110325.200,3844.1883,N,00908.1768,W,6,2,99.99,101.3,M,50.7,M,,*7C
$GPGLL,3844.1883,N,00908.1768,W,110325.200,V,E*5E
$GPGSA,A,1,21,29,,,,,,,,,,,99.99,99.99,1.00*09
$GPRMC,110325.200,V,3844.1883,N,00908.1768,W,2.44,232.65,250913,,,E*67
$GPVTG,232.65,T,,M,2.44,N,4.53,K,E*39
$GPZDA,110325.200,25,09,2013,,*5E
$GPGGA,110325.400,3844.1881,N,00908.1769,W,6,2,99.99,101.3,M,50.7,M,,*79
$GPGLL,3844.1881,N,00908.1769,W,110325.400,V,E*5B
$GPGSA,A,1,21,29,,,,,,,,,,,99.99,99.99,1.00*09
$GPRMC,110325.400,V,3844.1881,N,00908.1769,W,2.28,232.65,250913,,,E*68
$GPVTG,232.65,T,,M,2.28,N,4.23,K,E*34
$GPZDA,110325.400,25,09,2013,,*58
$GPGGA,110325.600,3844.1878,N,00908.1770,W,6,2,99.99,101.3,M,50.7,M,,*75
$GPGLL,3844.1878,N,00908.1770,W,110325.600,V,E*57
$GPGSA,A,1,21,29,,,,,,,,,,,99.99,99.99,1.00*09
$GPRMC,110325.600,V,3844.1878,N,00908.1770,W,2.45,229.04,250913,,,E*62
$GPVTG,229.04,T,,M,2.45,N,4.54,K,E*32
$GPZDA,110325.600,25,09,2013,,*5A
$GPGGA,110325.800,3844.1874,N,00908.1772,W,6,2,99.99,101.3,M,50.7,M,,*75
$GPGLL,3844.1874,N,00908.1772,W,110325.800,V,E*57
$GPGSA,A,1,21,29,,,,,,,,,,,99.99,99.99,1.00*09
$GPGSV,4,1,13,21,64,092,28,16,47,316,19,06,42,271,22,31,42,189,27*73
$GPGSV,4,2,13,27,32,263,24,03,20,266,26,29,18,060,28,18,12,126,*7E
$GPGSV,4,3,13,25,08,116,,23,05,291,,13,04,317,,19,02,250,*75
$GPGSV,4,4,13,22,01,158,*46
$GPRMC,110325.800,V,3844.1874,N,00908.1772,W,2.76,228.87,250913,,,E*68
$GPVTG,228.87,T,,M,2.76,N,5.12,K,E*3B
$GPZDA,110325.800,25,09,2013,,*54
$GPGGA,110326.000,3844.1871,N,00908.1774,W,6,2,99.99,101.3,M,50.7,M,,*7D
$GPGLL,3844.1871,N,00908.1774,W,110326.000,V,E*5F
$GPGSA,A,1,21,29,,,,,,,,,,,99.99,99.99,1.00*09
$GPRMC,110326.000,V,3844.1871,N,00908.1774,W,2.78,228.91,250913,,,E*69
$GPVTG,228.91,T,,M,2.78,N,5.15,K,E*35
$GPZDA,110326.000,25,09,2013,,*5F
$GPGGA,110326.200,3844.1867,N,00908.1776,W,6,2,99.99,101.3,M,50.7,M,,*7A
$GPGLL,3844.1867,N,00908.1776,W,110326.200,V,E*58
$GPGSA,A,1,21,29,,,,,,,,,,,99.99,99.99,1.00*09
$GPRMC,110326.200,V,3844.1867,N,00908.1776,W,2.86,229.17,250913,,,E*60
$GPVTG,229.17,T,,M,2.86,N,5.30,K,E*3C
$GPZDA,110326.200,25,09,2013,,*5D
$GPGGA,110326.400,3844.1863,N,00908.1778,W,6,2,99.99,101.3,M,50.7,M,,*76
$GPGLL,3844.1863,N,00908.1778,W,110326.400,V,E*54
$GPGSA,A,1,21,29,,,,,,,,,,,99.99,99.99,1.00*09
$GPRMC,110326.400,V,3844.1863,N,00908.1778,W,2.87,228.89,250913,,,E*6B
$GPVTG,228.89,T,,M,2.87,N,5.33,K,E*38
$GPZDA,110326.400,25,09,2013,,*5B
$GPGGA,110326.600,3844.1859,N,00908.1780,W,6,2,99.99,101.3,M,50.7,M,,*7A
$GPGLL,3844.1859,N,00908.1780,W,110326.600,V,E*58
$GPGSA,A,1,21,29,,,,,,,,,,,99.99,99.99,1.00*09
$GPRMC,110326.600,V,3844.1859,N,00908.1780,W,2.83,229.14,250913,,,E*66
$GPVTG,229.14,T,,M,2.83,N,5.24,K,E*3F
$GPZDA,110326.600,25,09,2013,,*59
$GPGGA,110326.800,3844.1855,N,00908.1782,W,6,2,99.99,101.3,M,50.7,M,,*7A
$GPGLL,3844.1855,N,00908.1782,W,110326.800,V,E*58
$GPGSA,A,1,21,29,,,,,,,,,,,99.99,99.99,1.00*09
$GPGSV,4,1,13,21,64,092,28,16,47,316,18,06,42,271,22,31,42,189,29*7C
$GPGSV,4,2,13,27,32,263,24,03,20,266,24,29,18,060,28,18,12,126,*7C
$GPGSV,4,3,13,25,08,116,,23,05,291,,13,04,317,,19,02,250,*75
$GPGSV,4,4,13,22,01,158,*46
$GPRMC,110326.800,V,3844.1855,N,00908.1782,W,2.82,228.33,250913,,,E*63
$GPVTG,228.33,T,,M,2.82,N,5.22,K,E*3C
$GPZDA,110326.800,25,09,2013,,*57
$GPGGA,110327.000,3844.1851,N,00908.1783,W,6,2,99.99,101.3,M,50.7,M,,*76
$GPGLL,3844.1851,N,00908.1783,W,110327.000,V,E*54
$GPGSA,A,1,21,29,,,,,,,,,,,99.99,99.99,1.00*09
$GPRMC,110327.000,V,3844.1851,N,00908.1783,W,2.79,228.07,250913,,,E*6C
$GPVTG,228.07,T,,M,2.79,N,5.17,K,E*39
$GPZDA,110327.000,25,09,2013,,*5E
$GPGGA,110327.200,3844.1847,N,00908.1786,W,6,2,99.99,101.3,M,50.7,M,,*76
$GPGLL,3844.1847,N,00908.1786,W,110327.200,V,E*54
$GPGSA,A,1,21,29,,,,,,,,,,,99.99,99.99,1.00*09
$GPRMC,110327.200,V,3844.1847,N,00908.1786,W,2.57,228.75,250913,,,E*65
$GPVTG,228.75,T,,M,2.57,N,4.76,K,E*36
$GPZDA,110327.200,25,09,2013,,*5C
$GPGGA,110327.400,3844.1840,N,00908.1790,W,6,2,99.99,101.3,M,50.7,M,,*70
$GPGLL,3844.1840,N,00908.1790,W,110327.400,V,E*52
$GPGSA,A,1,21,29,,,,,,,,,,,99.99,99.99,1.00*09
$GPRMC,110327.400,V,3844.1840,N,00908.1790,W,3.72,230.36,250913,,,E*6B
$GPVTG,230.36,T,,M,3.72,N,6.90,K,E*34
$GPZDA,110327.400,25,09,2013,,*5A
$GPGGA,110327.600,3844.1835,N,00908.1793,W,6,2,99.99,101.3,M,50.7,M,,*73
$GPGLL,3844.1835,N,00908.1793,W,110327.600,V,E*51
$GPGSA,A,1,21,29,,,,,,,,,,,99.99,99.99,1.00*09
$GPRMC,110327.600,V,3844.1835,N,00908.1793,W,3.50,230.27,250913,,,E*68
$GPVTG,230.27,T,,M,3.50,N,6.48,K,E*31
$GPZDA,110327.600,25,09,2013,,*58
$GPGGA,110327.800,3844.1830,N,00908.1796,W,6,2,99.99,101.3,M,50.7,M,,*7D
$GPGLL,3844.1830,N,00908.1796,W,110327.800,V,E*5F
$GPGSA,A,1,21,29,,,,,,,,,,,99.99,99.99,1.00*09
$GPGSV,4,1,13,21,64,092,27,16,47,316,18,06,42,271,23,31,42,189,28*73
$GPGSV,4,2,13,27,32,263,25,03,20,266,27,29,18,060,32,18,12,126,*75
$GPGSV,4,3,13,25,08,116,,23,05,291,,13,04,317,,19,02,250,*75
$GPGSV,4,4,13,22,01,158,*46
$GPRMC,110327.800,V,3844.1830,N,00908.1796,W,3.50,231.31,250913,,,E*60
$GPVTG,231.31,T,,M,3.50,N,6.48,K,E*37
$GPZDA,110327.800,25,09,2013,,*56
$GPGGA,110328.000,3844.1828,N,00908.1797,W,6,2,99.99,101.3,M,50.7,M,,*72
$GPGLL,3844.1828,N,00908.1797,W,110328.000,V,E*50
$GPGSA,A,1,21,29,,,,,,,,,,,99.99,99.99,1.00*09
$GPRMC,110328.000,V,3844.1828,N,00908.1797,W,2.01,231.31,250913,,,E*6A
$GPVTG,231.31,T,,M,2.01,N,3.72,K,E*3E
$GPZDA,110328.000,25,09,2013,,*51
$GPGGA,110328.200,3844.1825,N,00908.1798,W,6,2,99.99,101.3,M,50.7,M,,*72
$GPGLL,3844.1825,N,00908.1798,W,110328.200,V,E*50
$GPGSA,A,1,21,29,,,,,,,,,,,99.99,99.99,1.00*09
$GPRMC,110328.200,V,3844.1825,N,00908.1798,W,1.96,231.31,250913,,,E*67
$GPVTG,231.31,T,,M,1.96,N,3.64,K,E*34
$GPZDA,110328.200,25,09,2013,,*53
$GPGGA,110328.400,3844.1823,N,00908.1799,W,6,2,99.99,101.3,M,50.7,M,,*73
$GPGLL,3844.1823,N,00908.1799,W,110328.400,V,E*51
$GPGSA,A,1,21,29,,,,,,,,,,,99.99,99.99,1.00*09
$GPRMC,110328.400,V,3844.1823,N,00908.1799,W,2.00,231.31,250913,,,E*6A
$GPVTG,231.31,T,,M,2.00,N,3.70,K,E*3D
$GPZDA,110328.400,25,09,2013,,*55
$GPGGA,110328.600,3844.1820,N,00908.1801,W,6,2,99.99,101.3,M,50.7,M,,*7C
$GPGLL,3844.1820,N,00908.1801,W,110328.600,V,E*5E
$GPGSA,A,1,21,29,,,,,,,,,,,99.99,99.99,1.00*09
$GPRMC,110328.600,V,3844.1820,N,00908.1801,W,2.29,231.31,250913,,,E*6E
$GPVTG,231.31,T,,M,2.29,N,4.24,K,E*30
$GPZDA,110328.600,25,09,2013,,*57
$GPGGA,110328.800,3844.1819,N,00908.1802,W,6,2,99.99,101.3,M,50.7,M,,*7B
$GPGLL,3844.1819,N,00908.1802,W,110328.800,V,E*59
$GPGSA,A,1,21,29,,,,,,,,,,,99.99,99.99,1.00*09
$GPGSV,4,1,13,21,64,092,26,16,47,316,18,06,42,271,23,31,42,189,30*7B
$GPGSV,4,2,13,27,32,263,27,03,20,266,28,29,18,060,17,18,12,126,*7F
$GPGSV,4,3,13,25,08,116,,23,05,291,,13,04,317,,19,02,250,*75
$GPGSV,4,4,13,22,01,158,*46
$GPRMC,110328.800,V,3844.1819,N,00908.1802,W,0.11,231.31,250913,,,E*60
$GPVTG,231.31,T,,M,0.11,N,0.21,K,E*38
$GPZDA,110328.800,25,09,2013,,*59
$GPGGA,110329.000,3844.1820,N,00908.1804,W,6,2,99.99,101.3,M,50.7,M,,*7E
$GPGLL,3844.1820,N,00908.1804,W,110329.000,V,E*5C
$GPGSA,A,1,21,29,,,,,,,,,,,99.99,99.99,1.00*09
$GPRMC,110329.000,V,3844.1820,N,00908.1804,W,0.09,231.31,250913,,,E*6C
$GPVTG,231.31,T,,M,0.09,N,0.16,K,E*35
$GPZDA,110329.000,25,09,2013,,*50
$GPGGA,110329.200,3844.1820,N,00908.1806,W,0,2,,101.3,M,50.7,M,,*56
$GPGLL,3844.1820,N,00908.1806,W,110329.200,V,N*57
$GPGSA,A,1,,,,,,,,,,,,,,,*1E
$GPRMC,110329.200,V,3844.1820,N,00908.1806,W,0.88,231.31,250913,,,N*6E
$GPVTG,231.31,T,,M,0.88,N,1.63,K,N*34
$GPZDA,110329.200,25,09,2013,,*52
$GPGGA,110329.400,3844.1820,N,00908.1809,W,6,2,99.99,101.3,M,50.7,M,,*77
$GPGLL,3844.1820,N,00908.1809,W,110329.400,V,E*55
$GPGSA,A,1,21,29,,,,,,,,,,,99.99,99.99,1.00*09
$GPRMC,110329.400,V,3844.1820,N,00908.1809,W,1.13,231.31,250913,,,E*6F
$GPVTG,231.31,T,,M,1.13,N,2.08,K,E*32
$GPZDA,110329.400,25,09,2013,,*54
$GPGGA,110329.600,3844.1820,N,00908.1811,W,6,2,99.99,101.3,M,50.7,M,,*7C
$GPGLL,3844.1820,N,00908.1811,W,110329.600,V,E*5E
$GPGSA,A,1,21,29,,,,,,,,,,,99.99,99.99,1.00*09
$GPRMC,110329.600,V,3844.1820,N,00908.1811,W,1.09,231.31,250913,,,E*6F
$GPVTG,231.31,T,,M,1.09,N,2.02,K,E*33
$GPZDA,110329.600,25,09,2013,,*56
$GPGGA,110329.800,3844.1818,N,00908.1814,W,6,2,99.99,101.3,M,50.7,M,,*7C
$GPGLL,3844.1818,N,00908.1814,W,110329.800,V,E*5E
$GPGSA,A,1,21,29,,,,,,,,,,,99.99,99.99,1.00*09
$GPGSV,4,1,13,21,64,092,26,16,47,316,19,06,42,271,23,31,42,189,31*7B
$GPGSV,4,2,13,27,32,263,21,03,20,266,24,29,18,060,17,18,12,126,*75
$GPGSV,4,3,13,25,08,116,,23,05,291,,13,04,317,,19,02,250,*75
$GPGSV,4,4,13,22,01,158,*46
$GPRMC,110329.800,V,3844.1818,N,00908.1814,W,1.42,231.31,250913,,,E*60
$GPVTG,231.31,T,,M,1.42,N,2.63,K,E*3B
$GPZDA,110329.800,25,09,2013,,*58
$GPGGA,110330.000,3844.1817,N,00908.1817,W,0,2,,101.3,M,50.7,M,,*58
$GPGLL,3844.1817,N,00908.1817,W,110330.000,V,N*59
$GPGSA,A,1,,,,,,,,,,,,,,,*1E
$GPRMC,110330.000,V,3844.1817,N,00908.1817,W,1.42,231.31,250913,,,N*67
$GPVTG,231.31,T,,M,1.42,N,2.64,K,N*37
$GPZDA,110330.000,25,09,2013,,*58
$GPGGA,110330.200,3844.1815,N,00908.1820,W,6,2,99.99,101.3,M,50.7,M,,*74
$GPGLL,3844.1815,N,00908.1820,W,110330.200,V,E*56
$GPGSA,A,1,21,29,,,,,,,,,,,99.99,99.99,1.00*09
$GPRMC,110330.200,V,3844.1815,N,00908.1820,W,1.41,231.31,250913,,,E*6B
$GPVTG,231.31,T,,M,1.41,N,2.62,K,E*39
$GPZDA,110330.200,25,09,2013,,*5A
$GPGGA,110330.400,3844.1815,N,00908.1823,W,6,2,99.99,101.3,M,50.7,M,,*71
$GPGLL,3844.1815,N,00908.1823,W,110330.400,V,E*53
$GPGSA,A,1,21,29,,,,,,,,,,,99.99,99.99,1.00*09
$GPRMC,110330.400,V,3844.1815,N,00908.1823,W,1.21,231.31,250913,,,E*68
$GPVTG,231.31,T,,M,1.21,N,2.25,K,E*3C
$GPZDA,110330.400,25,09,2013,,*5C
$GPGGA,110330.600,3844.1815,N,00908.1824,W,6,2,99.99,101.3,M,50.7,M,,*74
$GPGLL,3844.1815,N,00908.1824,W,110330.600,V,E*56
$GPGSA,A,1,21,29,,,,,,,,,,,99.99,99.99,1.00*09
$GPRMC,110330.600,V,3844.1815,N,00908.1824,W,0.57,231.31,250913,,,E*6D
$GPVTG,231.31,T,,M,0.57,N,1.05,K,E*3D
$GPZDA,110330.600,25,09,2013,,*5E
$GPGGA,110330.800,3844.1815,N,00908.1825,W,0,2,,101.3,M,50.7,M,,*53
$GPGLL,3844.1815,N,00908.1825,W,110330.800,V,N*52
$GPGSA,A,1,,,,,,,,,,,,,,,*1E
$GPGSV,4,1,13,21,64,092,25,16,47,316,18,06,42,271,21,31,42,189,32*78
$GPGSV,4,2,13,27,32,263,22,03,20,266,25,29,18,060,16,18,12,126,*76
$GPGSV,4,3,13,25,08,116,,23,05,291,,13,04,317,,19,02,250,*75
$GPGSV,4,4,13,22,01,158,*46
$GPRMC,110330.800,V,3844.1815,N,00908.1825,W,0.27,231.31,250913,,,N*6E
$GPVTG,231.31,T,,M,0.27,N,0.51,K,N*31
$GPZDA,110330.800,25,09,2013,,*50
$GPGGA,110331.000,3844.1817,N,00908.1825,W,0,2,,101.3,M,50.7,M,,*58
$GPGLL,3844.1817,N,00908.1825,W,110331.000,V,N*59
$GPGSA,A,1,,,,,,,,,,,,,,,*1E
$GPRMC,110331.000,V,3844.1817,N,00908.1825,W,0.27,231.31,250913,,,N*65
$GPVTG,231.31,T,,M,0.27,N,0.50,K,N*30
$GPZDA,110331.000,25,09,2013,,*59
$GPGGA,110331.200,3844.1818,N,00908.1825,W,0,2,,101.3,M,50.7,M,,*55
$GPGLL,3844.1818,N,00908.1825,W,110331.200,V,N*54
$GPGSA,A,1,,,,,,,,,,,,,,,*1E
$GPRMC,110331.200,V,3844.1818,N,00908.1825,W,0.32,231.31,250913,,,N*6C
$GPVTG,231.31,T,,M,0.32,N,0.59,K,N*3D
$GPZDA,110331.200,25,09,2013,,*5B
$GPGGA,110331.400,3844.1819,N,00908.1824,W,0,2,,101.3,M,50.7,M,,*53
$GPGLL,3844.1819,N,00908.1824,W,110331.400,V,N*52
$GPGSA,A,1,,,,,,,,,,,,,,,*1E
$GPRMC,110331.400,V,3844.1819,N,00908.1824,W,0.49,231.31,250913,,,N*66
$GPVTG,231.31,T,,M,0.49,N,0.92,K,N*36
$GPZDA,110331.400,25,09,2013,,*5D
$GPGGA,110331.600,3844.1820,N,00908.1822,W,0,2,,101.3,M,50.7,M,,*5D
$GPGLL,3844.1820,N,00908.1822,W,110331.600,V,N*5C
$GPGSA,A,1,,,,,,,,,,,,,,,*1E
$GPRMC,110331.600,V,3844.1820,N,00908.1822,W,0.67,231.31,250913,,,N*64
$GPVTG,231.31,T,,M,0.67,N,1.25,K,N*37
$GPZDA,110331.600,25,09,2013,,*5F
$GPGGA,110331.800,3844.1823,N,00908.1821,W,6,2,99.99,101.3,M,50.7,M,,*7B
$GPGLL,3844.1823,N,00908.1821,W,110331.800,V,E*59
$GPGSA,A,1,21,29,,,,,,,,,,,99.99,99.99,1.00*09
$GPGSV,4,1,13,21,64,092,21,16,47,316,17,06,42,271,20,31,42,189,33*73
$GPGSV,4,2,13,27,32,263,22,03,20,266,24,29,18,060,16,18,12,126,*77
$GPGSV,4,3,13,25,08,116,,23,05,291,,13,04,317,,19,02,250,*75
$GPGSV,4,4,13,22,01,158,*46
$GPRMC,110331.800,V,3844.1823,N,00908.1821,W,0.75,231.31,250913,,,E*62
$GPVTG,231.31,T,,M,0.75,N,1.39,K,E*32
$GPZDA,110331.800,25,09,2013,,*51
$GPGGA,110332.000,3844.1826,N,00908.1821,W,6,2,99.99,101.3,M,50.7,M,,*75
$GPGLL,3844.1826,N,00908.1821,W,110332.000,V,E*57
$GPGSA,A,1,21,29,,,,,,,,,,,99.99,99.99,1.00*09
$GPRMC,110332.000,V,3844.1826,N,00908.1821,W,0.58,231.31,250913,,,E*63
$GPVTG,231.31,T,,M,0.58,N,1.08,K,E*3F
$GPZDA,110332.000,25,09,2013,,*5A
$GPGGA,110332.200,3844.1829,N,00908.1821,W,6,2,99.99,101.3,M,50.7,M,,*78
$GPGLL,3844.1829,N,00908.1821,W,110332.200,V,E*5A
$GPGSA,A,1,21,29,,,,,,,,,,,99.99,99.99,1.00*09
$GPRMC,110332.200,V,3844.1829,N,00908.1821,W,0.64,231.31,250913,,,E*61
$GPVTG,231.31,T,,M,0.64,N,1.19,K,E*30
$GPZDA,110332.200,25,09,2013,,*58
$GPGGA,110332.400,3844.1833,N,00908.1821,W,6,2,99.99,101.3,M,50.7,M,,*75
$GPGLL,3844.1833,N,00908.1821,W,110332.400,V,E*57
